ID,Name,Name (Lateinisch),Name (ASCII),Länderkürzel,Zeitzone,Latitude,Longitude
25546152,Pécs,Pécs,Pecs,HU,CET,46.0663656,18.2253315
33123162,Fonyód,Fonyód,Fonyod,HU,CET,46.7500962,17.5578146
33127897,Tab,Tab,Tab,HU,CET,46.7340954,18.0414685
50825206,Lövő,Lövő,Lovo,HU,CET,47.509619,16.777372
60498455,Nagylók,Nagylók,Nagylok,HU,CET,46.9792223,18.6356096
61086232,Polgárdi-Ipartelepek,Polgárdi-Ipartelepek,Polgardi-Ipartelepek,HU,CET,47.0791007,18.3150117
61086242,Polgárdi,Polgárdi,Polgardi,HU,CET,47.0695946,18.2839065
61086286,Csajág,Csajág,Csajag,HU,CET,47.0336265,18.1862057
71481036,Várpalota,Várpalota,Varpalota,HU,CET,47.1945772,18.1488969
71481373,Veszprém,Veszprém,Veszprem,HU,CET,47.1189646,17.9114044
71526160,Városlőd-Kislőd,Városlőd-Kislőd,Varoslod-Kislod,HU,CET,47.1343841,17.6318064
71526236,Ajka,Ajka,Ajka,HU,CET,47.1059403,17.5728618
73838428,Boba,Boba,Boba,HU,CET,47.1829415,17.1911812
73838548,Nemeskeresztúr,Nemeskeresztúr,Nemeskeresztur,HU,CET,47.0936286,17.1837149
73838664,Ukk,Ukk,Ukk,HU,CET,47.0407602,17.1964864
73838746,Sümeg,Sümeg,Sumeg,HU,CET,46.9809783,17.2708382
73838764,Sümegi Bazaltbánya,Sümegi Bazaltbánya,Sumegi Bazaltbanya,HU,CET,46.9523105,17.292559
73838803,Uzsa,Uzsa,Uzsa,HU,CET,46.9203022,17.3316351
73838860,Lesencetomaj,Lesencetomaj,Lesencetomaj,HU,CET,46.8757443,17.3787385
73838931,Jánosháza,Jánosháza,Janoshaza,HU,CET,47.1154602,17.1716421
80221090,Badacsonytördemic-Szigliget,Badacsonytördemic-Szigliget,Badacsonytordemic-Szigliget,HU,CET,46.8097994,17.4691454
80221102,Badacsonytomaj,Badacsonytomaj,Badacsonytomaj,HU,CET,46.8046301,17.5182176
80221134,Balatonakali-Dörgicse,Balatonakali-Dörgicse,Balatonakali-Dorgicse,HU,CET,46.8797212,17.7478744
80221159,Aszófő,Aszófő,Aszofo,HU,CET,46.9252798,17.8325185
80221174,Balatonfüred,Balatonfüred,Balatonfured,HU,CET,46.956305,17.8829694
80221191,Alsóörs,Alsóörs,Alsoors,HU,CET,46.9850792,17.9753834
80221206,Balatonkenese,Balatonkenese,Balatonkenese,HU,CET,47.0324031,18.1059692
80231925,Pétfürdő,Pétfürdő,Petfurdo,HU,CET,47.1673022,18.1222417
80231932,Hajmáskér,Hajmáskér,Hajmasker,HU,CET,47.1409977,18.0090856
80231939,Devecser,Devecser,Devecser,HU,CET,47.1121581,17.4358754
91687004,Győr,Győr,Gyor,HU,CET,47.6820845,17.6348269
91711522,Mosonmagyaróvár,Mosonmagyaróvár,Mosonmagyarovar,HU,CET,47.8494255,17.2675925
91711539,Lébény-Mosonszentmiklós,Lébény-Mosonszentmiklós,Lebeny-Mosonszentmiklos,HU,CET,47.7558863,17.4254383
92752136,Keszthely,Keszthely,Keszthely,HU,CET,46.7579159,17.2474814
92752232,Vonyarcvashegy,Vonyarcvashegy,Vonyarcvashegy,HU,CET,46.7551799,17.3181073
92752370,Balatonederics,Balatonederics,Balatonederics,HU,CET,46.8026502,17.3851483
92829744,Sárbogárd,Sárbogárd,Sarbogard,HU,CET,46.8967726,18.6120299
92829746,Sásd,Sásd,Sasd,HU,CET,46.257222,18.1045665
93548551,Szil-Sopronnémeti,Szil-Sopronnémeti,Szil-Sopronnemeti,HU,CET,47.5334101,17.209668
93548712,Vép,Vép,Vep,HU,CET,47.2357451,16.7271137
93800918,Mosonszolnok,Mosonszolnok,Mosonszolnok,HU,CET,47.8527157,17.1605963
93800919,Jánossomorja,Jánossomorja,Janossomorja,HU,CET,47.7890546,17.1376322
93800924,Bősárkány,Bősárkány,Bosarkany,HU,CET,47.6854489,17.2342043
93800933,Beled,Beled,Beled,HU,CET,47.4666397,17.0846662
93800938,Répcelak,Répcelak,Repcelak,HU,CET,47.4190234,17.0090591
93800945,Hegyfalu,Hegyfalu,Hegyfalu,HU,CET,47.3580051,16.8987723
93800949,Ölbő-Alsószeleste,Ölbő-Alsószeleste,Olbo-Alsoszeleste,HU,CET,47.3005197,16.8431981
93800951,Porpác,Porpác,Porpac,HU,CET,47.2389101,16.833177
93800956,Szombathely,Szombathely,Szombathely,HU,CET,47.2373509,16.6327619
94074329,Vasvár,Vasvár,Vasvar,HU,CET,47.056967,16.800034
94074423,Egervár-Vasboldogasszony,Egervár-Vasboldogasszony,Egervar-Vasboldogasszony,HU,CET,46.9418827,16.8621655
94074460,Püspökmolnári,Püspökmolnári,Puspokmolnari,HU,CET,47.0849546,16.7685186
94074463,Pácsony,Pácsony,Pacsony,HU,CET,47.0096644,16.8335257
94290568,Felsőrajk,Felsőrajk,Felsorajk,HU,CET,46.6671786,16.9826863
94290630,Nagykanizsa,Nagykanizsa,Nagykanizsa,HU,CET,46.4406939,16.9869609
94290634,Újudvar,Újudvar,Ujudvar,HU,CET,46.5193303,16.9799562
94290645,Gelse,Gelse,Gelse,HU,CET,46.6002182,16.9825813
94290650,Zalaszentmihály-Pacsa,Zalaszentmihály-Pacsa,Zalaszentmihaly-Pacsa,HU,CET,46.7232791,16.9518313
94290654,Nagykapornak,Nagykapornak,Nagykapornak,HU,CET,46.8321603,16.9350524
94301795,Őrtilos,Őrtilos,Ortilos,HU,CET,46.2978082,16.8876303
94301821,Gyékényes,Gyékényes,Gyekenyes,HU,CET,46.2491641,16.9560134
94528674,Kaposmérő,Kaposmérő,Kaposmero,HU,CET,46.3654936,17.6994925
94528727,Kaposvár,Kaposvár,Kaposvar,HU,CET,46.3526761,17.7948926
94722975,Berzence,Berzence,Berzence,HU,CET,46.2012426,17.1437397
94722982,Vízvár,Vízvár,Vizvar,HU,CET,46.1014403,17.2391023
94730718,Darány,Darány,Darany,HU,CET,45.9921931,17.5983245
94730730,Szigetvár,Szigetvár,Szigetvar,HU,CET,46.0431289,17.8022612
94743561,Kiskorpád,Kiskorpád,Kiskorpad,HU,CET,46.3620095,17.6077795
94743562,Jákó-Nagybajom,Jákó-Nagybajom,Jako-Nagybajom,HU,CET,46.3446654,17.5551478
94743595,Somogyszob,Somogyszob,Somogyszob,HU,CET,46.2890433,17.3066734
94743602,Szenta,Szenta,Szenta,HU,CET,46.273692,17.1808265
94743609,Csurgó,Csurgó,Csurgo,HU,CET,46.2611758,17.0917827
94743620,Beleg,Beleg,Beleg,HU,CET,46.3167842,17.4206547
94939411,Zalakomár,Zalakomár,Zalakomar,HU,CET,46.5298803,17.1879095
95043905,Ádánd,Ádánd,Adand,HU,CET,46.8540991,18.1414044
95043968,Kisbárapáti,Kisbárapáti,Kisbarapati,HU,CET,46.6149785,17.8669583
95043970,Felsőmocsolád,Felsőmocsolád,Felsomocsolad,HU,CET,46.560676,17.8213833
95043975,Mernye,Mernye,Mernye,HU,CET,46.5095604,17.8321244
198841762,Érd,Érd,Erd,HU,CET,47.3697006,18.9008522
243750414,Hatvan,Hatvan,Hatvan,HU,CET,47.6631262,19.6712326
243750429,Gyöngyös,Gyöngyös,Gyongyos,HU,CET,47.7831146,19.9372173
243767049,Gyöngyös,Gyöngyös,Gyongyos,HU,CET,47.7840773,19.9334611
245485226,Veresegyház,Veresegyház,Veresegyhaz,HU,CET,47.6490786,19.2887777
247091862,Mezőkövesd,Mezőkövesd,Mezokovesd,HU,CET,47.7973624,20.5679076
268196140,Ostffyasszonyfa,Ostffyasszonyfa,Ostffyasszonyfa,HU,CET,47.2840326,17.0243333
268196808,Egyházasrádóc,Egyházasrádóc,Egyhazasradoc,HU,CET,47.0908446,16.6197349
268202972,Püspökladány,Püspökladány,Puspokladany,HU,CET,47.3279281,21.1285324
268203181,Hajdúszoboszló,Hajdúszoboszló,Hajduszoboszlo,HU,CET,47.4292635,21.4071691
268205508,Gyoma,Gyoma,Gyoma,HU,CET,46.9247637,20.8224339
268205547,Mezőberény,Mezőberény,Mezobereny,HU,CET,46.8147898,21.0130131
268212167,Nyírbogdány,Nyírbogdány,Nyirbogdany,HU,CET,48.0822361,21.8547225
268212339,Záhony,Záhony,Zahony,HU,CET,48.4016962,22.1837559
268212804,Pátroha,Pátroha,Patroha,HU,CET,48.1587888,21.9970376
268213782,Nyékládháza,Nyékládháza,Nyekladhaza,HU,CET,47.9923681,20.8404141
268213797,Miskolc-Tiszai,Miskolc-Tiszai,Miskolc-Tiszai,HU,CET,48.0987059,20.8109398
268215883,Ózd,Ózd,Ozd,HU,CET,48.2224893,20.2946915
268598665,Nagybátony,Nagybátony,Nagybatony,HU,CET,47.979832,19.8194559
268602993,Eger,Eger,Eger,HU,CET,47.8916692,20.3818592
268603991,Vajta,Vajta,Vajta,HU,CET,46.7141863,18.6481337
268670633,Onga,Onga,Onga,HU,CET,48.1217918,20.9073994
269706702,Rácalmás,Rácalmás,Racalmas,HU,CET,47.0242327,18.910103
269706716,Dunaújváros,Dunaújváros,Dunaujvaros,HU,CET,46.9606121,18.9141032
269707015,Mezőfalva,Mezőfalva,Mezofalva,HU,CET,46.9053893,18.8104559
275275246,Zalaegerszeg,Zalaegerszeg,Zalaegerszeg,HU,CET,46.8335451,16.8483371
276516808,Pápa,Pápa,Papa,HU,CET,47.3404928,17.4588546
276517078,Vinár,Vinár,Vinar,HU,CET,47.3058672,17.2826045
287638744,Szokolya,Szokolya,Szokolya,HU,CET,47.8710406,19.0306788
289404886,Fülöpszállás,Fülöpszállás,Fulopszallas,HU,CET,46.8207762,19.246958
292816809,Röszke,Röszke,Roszke,HU,CET,46.1925665,20.0305376
295489366,Kiskunhalas,Kiskunhalas,Kiskunhalas,HU,CET,46.4335293,19.4938774
308760884,Kóny,Kóny,Kony,HU,CET,47.6328108,17.3595372
309591993,Simontornya,Simontornya,Simontornya,HU,CET,46.7564944,18.5408505
309592393,Cece,Cece,Cece,HU,CET,46.7721885,18.6238132
321885895,Veszprémvarsány,Veszprémvarsány,Veszpremvarsany,HU,CET,47.4433021,17.8185258
321885953,Tarjánpuszta,Tarjánpuszta,Tarjanpuszta,HU,CET,47.5046883,17.7887769
321886026,Pannonhalma,Pannonhalma,Pannonhalma,HU,CET,47.547519,17.7407026
321886673,Bakonyszentlászló,Bakonyszentlászló,Bakonyszentlaszlo,HU,CET,47.396001,17.8176032
324567423,Nagycenk,Nagycenk,Nagycenk,HU,CET,47.6013303,16.6894255
335404400,Szentlőrinc,Szentlőrinc,Szentlorinc,HU,CET,46.0331108,17.9907595
335898836,Mohács,Mohács,Mohacs,HU,CET,46.0024703,18.6843799
335898854,Bóly,Bóly,Boly,HU,CET,45.9376148,18.5383737
336099929,Dombóvár alsó,Dombóvár alsó,Dombovar also,HU,CET,46.363663,18.1340598
337738743,Szentes,Szentes,Szentes,HU,CET,46.6576026,20.2724545
337745926,Hódmezővásárhely,Hódmezővásárhely,Hodmezovasarhely,HU,CET,46.4134792,20.3401153
338000585,Nagyatád,Nagyatád,Nagyatad,HU,CET,46.228452,17.3541896
340413312,Pécs-Külváros,Pécs-Külváros,Pecs-Kulvaros,HU,CET,46.0717703,18.2402855
342152127,Mecsekalja-Cserkút,Mecsekalja-Cserkút,Mecsekalja-Cserkut,HU,CET,46.0602028,18.1519349
342155899,Bicsérd,Bicsérd,Bicserd,HU,CET,46.0410126,18.053902
342860167,Orosháza,Orosháza,Oroshaza,HU,CET,46.5663173,20.6644664
343658483,Bükkösd,Bükkösd,Bukkosd,HU,CET,46.1130733,17.9996804
343659248,Abaliget,Abaliget,Abaliget,HU,CET,46.152688,18.0753148
344302131,Fertőszentmiklós,Fertőszentmiklós,Fertoszentmiklos,HU,CET,47.5996814,16.859932
344319183,Tatabánya,Tatabánya,Tatabanya,HU,CET,47.5854431,18.3928956
344464892,Decs,Decs,Decs,HU,CET,46.2838441,18.7559305
344909742,Murakeresztúr,Murakeresztúr,Murakeresztur,HU,CET,46.3638317,16.8766647
344928639,Medgyesegyháza,Medgyesegyháza,Medgyesegyhaza,HU,CET,46.4959269,21.0302644
344972517,Villány,Villány,Villany,HU,CET,45.8772721,18.4515148
344972535,Magyarbóly,Magyarbóly,Magyarboly,HU,CET,45.8348363,18.490763
344999320,Somoskőújfalu,Somoskőújfalu,Somoskoujfalu,HU,CET,48.1552049,19.8156171
345015012,Hejőkeresztúr,Hejőkeresztúr,Hejokeresztur,HU,CET,47.9603727,20.8692726
346249794,Székkutas,Székkutas,Szekkutas,HU,CET,46.5041074,20.5409495
346357569,Csorvás,Csorvás,Csorvas,HU,CET,46.6234417,20.8410397
347352747,Gádoros,Gádoros,Gadoros,HU,CET,46.656647,20.5883057
347635107,Szőreg,Szőreg,Szoreg,HU,CET,46.2109582,20.1827275
347635119,Újszeged,Újszeged,Ujszeged,HU,CET,46.241996,20.1601338
347635120,Apátfalva,Apátfalva,Apatfalva,HU,CET,46.1751847,20.5806361
347635122,Makó,Makó,Mako,HU,CET,46.2044934,20.4747133
348022630,Makó-Újváros,Makó-Újváros,Mako-Ujvaros,HU,CET,46.2312186,20.496223
352686556,Tiszatenyő,Tiszatenyő,Tiszatenyo,HU,CET,47.1356738,20.3696983
352686557,Szajol,Szajol,Szajol,HU,CET,47.1703699,20.2951966
354578892,Godisa,Godisa,Godisa,HU,CET,46.2231846,18.1046335
354597184,Mágocs-Alsómocsolád,Mágocs-Alsómocsolád,Magocs-Alsomocsolad,HU,CET,46.3099125,18.2223905
355209315,Vásárosdombó,Vásárosdombó,Vasarosdombo,HU,CET,46.3101965,18.1387279
355873876,Komló,Komló,Komlo,HU,CET,46.1891018,18.2648171
367073676,Poroszló,Poroszló,Poroszlo,HU,CET,47.6579696,20.6541168
370613835,Szendrő,Szendrő,Szendro,HU,CET,48.4006861,20.7213114
370613863,Szalonna,Szalonna,Szalonna,HU,CET,48.4488715,20.7222798
374390903,Szerencs,Szerencs,Szerencs,HU,CET,48.1557551,21.2147285
375892109,Gátér,Gátér,Gater,HU,CET,46.6850166,19.9624042
386789459,Lenti,Lenti,Lenti,HU,CET,46.6211745,16.5295307
408870015,Baja,Baja,Baja,HU,CET,46.1868383,18.9574678
409020131,Harkakötöny,Harkakötöny,Harkakotony,HU,CET,46.4585444,19.6019963
409643296,Hidas-Bonyhád,Hidas-Bonyhád,Hidas-Bonyhad,HU,CET,46.2692323,18.5230981
409646085,Máza-Szászvár,Máza-Szászvár,Maza-Szaszvar,HU,CET,46.2790874,18.4090402
410909455,Dunaföldvár,Dunaföldvár,Dunafoldvar,HU,CET,46.7931215,18.9124721
410917436,Lajosmizse,Lajosmizse,Lajosmizse,HU,CET,47.0283934,19.5423745
410918807,Hetényegyháza,Hetényegyháza,Hetenyegyhaza,HU,CET,46.9308431,19.5949092
410919582,Izsák,Izsák,Izsak,HU,CET,46.811761,19.3414941
410919860,Ágasegyháza,Ágasegyháza,Agasegyhaza,HU,CET,46.8442152,19.4560931
410919899,Helvécia,Helvécia,Helvecia,HU,CET,46.8558648,19.6161013
411322676,Pincehely,Pincehely,Pincehely,HU,CET,46.6812687,18.430021
411412655,Tiszavárkony,Tiszavárkony,Tiszavarkony,HU,CET,47.059355,20.1427007
411736478,Kunszentmiklós-Tass,Kunszentmiklós-Tass,Kunszentmiklos-Tass,HU,CET,47.0182974,19.0999095
411737615,Kiskunlacháza,Kiskunlacháza,Kiskunlachaza,HU,CET,47.1849642,19.0439836
411751991,Kiskőrös,Kiskőrös,Kiskoros,HU,CET,46.6272997,19.2968058
411752395,Öregcsertő,Öregcsertő,Oregcserto,HU,CET,46.523634,19.1176099
411752399,Kalocsa,Kalocsa,Kalocsa,HU,CET,46.5348238,18.9947391
411753255,Kecel,Kecel,Kecel,HU,CET,46.5524628,19.2418175
412453433,Lengyeltóti,Lengyeltóti,Lengyeltoti,HU,CET,46.6604178,17.6135298
412453954,Somogyvár,Somogyvár,Somogyvar,HU,CET,46.5804775,17.6346271
412453997,Osztopán,Osztopán,Osztopan,HU,CET,46.5144338,17.6570405
412454417,Somogyjád,Somogyjád,Somogyjad,HU,CET,46.490705,17.694511
412454445,Kaposfüred,Kaposfüred,Kaposfured,HU,CET,46.4143359,17.7590937
412818756,Zalalövő,Zalalövő,Zalalovo,HU,CET,46.8454429,16.5764505
414720955,Tuzsér,Tuzsér,Tuzser,HU,CET,48.3424148,22.1318312
415485997,Tiszafüred,Tiszafüred,Tiszafured,HU,CET,47.6278715,20.7560008
415597016,Zajta,Zajta,Zajta,HU,CET,47.9029805,22.7954048
415597056,Penyige,Penyige,Penyige,HU,CET,47.9952087,22.5670871
415604461,Mátészalka,Mátészalka,Mateszalka,HU,CET,47.9508519,22.3135893
415604493,Nyírbátor,Nyírbátor,Nyirbator,HU,CET,47.8424615,22.131109
445818043,Aba-Sárkeresztúr,Aba-Sárkeresztúr,Aba-Sarkeresztur,HU,CET,47.023785,18.5425663
445818128,Tolna-Mözs,Tolna-Mözs,Tolna-Mozs,HU,CET,46.4151827,18.7502292
445818131,Rétszilas,Rétszilas,Retszilas,HU,CET,46.8137914,18.6012977
445818141,Győrszabadhegy,Győrszabadhegy,Gyorszabadhegy,HU,CET,47.6631158,17.6480807
445818143,Zirc,Zirc,Zirc,HU,CET,47.2666991,17.8781466
457353120,Drégelypalánk,Drégelypalánk,Dregelypalank,HU,CET,48.0547614,19.0472416
457353128,Mezőzombor,Mezőzombor,Mezozombor,HU,CET,48.1569679,21.267511
467080026,Sárszentmihály,Sárszentmihály,Sarszentmihaly,HU,CET,47.1700229,18.3148583
467097187,Sávoly,Sávoly,Savoly,HU,CET,46.6094364,17.2353937
467097188,Zalaszentjakab,Zalaszentjakab,Zalaszentjakab,HU,CET,46.491409,17.1351443
467097189,Nagyrécse,Nagyrécse,Nagyrecse,HU,CET,46.4637235,17.0435097
477828393,Balatonfenyves GV,Balatonfenyves GV,Balatonfenyves GV,HU,CET,46.7125081,17.4792994
492615234,Gyál,Gyál,Gyal,HU,CET,47.3760289,19.220037
497138617,Vásárosnamény,Vásárosnamény,Vasarosnameny,HU,CET,48.1265592,22.3057275
497138623,Kocsord alsó,Kocsord alsó,Kocsord also,HU,CET,47.9462804,22.401411
497138625,Csenger,Csenger,Csenger,HU,CET,47.826135,22.666242
497138634,Apafa,Apafa,Apafa,HU,CET,47.5840837,21.6558721
497138749,Vámospércs,Vámospércs,Vamospercs,HU,CET,47.5178201,21.8938598
499510828,Felsőzsolca,Felsőzsolca,Felsozsolca,HU,CET,48.0836811,20.8660691
499510894,Kazincbarcika,Kazincbarcika,Kazincbarcika,HU,CET,48.2642774,20.6285505
499510966,Bánréve,Bánréve,Banreve,HU,CET,48.2999494,20.3519789
499510998,Mád,Mád,Mad,HU,CET,48.1899122,21.2686378
499511195,Hidasnémeti,Hidasnémeti,Hidasnemeti,HU,CET,48.5088735,21.2301362
500911441,Egyed-Rábacsanak,Egyed-Rábacsanak,Egyed-Rabacsanak,HU,CET,47.522084,17.316638
501797815,Sarkad,Sarkad,Sarkad,HU,CET,46.7366661,21.4025005
501797823,Kötegyán,Kötegyán,Kotegyan,HU,CET,46.7585615,21.4795749
501797876,Vésztő,Vésztő,Veszto,HU,CET,46.9389281,21.2632453
501797919,Körösladány,Körösladány,Korosladany,HU,CET,46.9700102,21.0858917
501798117,Szarvas,Szarvas,Szarvas,HU,CET,46.8605652,20.5667942
501798219,Kardoskút,Kardoskút,Kardoskut,HU,CET,46.4982519,20.6976859
501798340,Tiszalök,Tiszalök,Tiszalok,HU,CET,48.013016,21.369535
501798440,Nagyecsed,Nagyecsed,Nagyecsed,HU,CET,47.8648852,22.3854992
501798504,Nyíradony,Nyíradony,Nyiradony,HU,CET,47.6990402,21.9025888
503339800,Jászárokszállás,Jászárokszállás,Jaszarokszallas,HU,CET,47.6359779,19.970087
503339997,Jászladány,Jászladány,Jaszladany,HU,CET,47.3728858,20.1586289
503340099,Heves,Heves,Heves,HU,CET,47.6092311,20.3062908
503340112,Tarnaszentmiklós,Tarnaszentmiklós,Tarnaszentmiklos,HU,CET,47.5471215,20.3901455
503340626,Mezőcsát,Mezőcsát,Mezocsat,HU,CET,47.824605,20.9157192
506539163,Pókaszepetk,Pókaszepetk,Pokaszepetk,HU,CET,46.9243062,16.9719516
506539232,Zalabér-Batyk,Zalabér-Batyk,Zalaber-Batyk,HU,CET,46.983119,17.0407925
506539304,Zalaszentgrót,Zalaszentgrót,Zalaszentgrot,HU,CET,46.951151,17.0820063
506539951,Dejtár,Dejtár,Dejtar,HU,CET,48.0456131,19.1967038
506540045,Bükkábrány,Bükkábrány,Bukkabrany,HU,CET,47.8698921,20.6853553
506540049,Mezőkeresztes-Mezőnyárád,Mezőkeresztes-Mezőnyárád,Mezokeresztes-Mezonyarad,HU,CET,47.8451628,20.6696433
506540111,Visontai Kombinát,Visontai Kombinát,Visontai Kombinat,HU,CET,47.7843441,20.0676352
507098079,Murony,Murony,Murony,HU,CET,46.7569862,21.0381363
507098100,Ohat-Pusztakócs,Ohat-Pusztakócs,Ohat-Pusztakocs,HU,CET,47.6233784,20.9510519
507098220,Pocsaj-Esztár,Pocsaj-Esztár,Pocsaj-Esztar,HU,CET,47.2883333,21.7930555
507098424,Létavértes,Létavértes,Letavertes,HU,CET,47.3936814,21.8790153
507098475,Kisterenye,Kisterenye,Kisterenye,HU,CET,48.0096921,19.8318221
507098479,Görögszállás,Görögszállás,Gorogszallas,HU,CET,48.0398346,21.5552112
507900259,Kistelek,Kistelek,Kistelek,HU,CET,46.4671297,19.9666865
549344570,Táborfalva-Fenyves rakodó,Táborfalva-Fenyves rakodó,Taborfalva-Fenyves rakodo,HU,CET,47.0757565,19.4401446
549344791,Tócóvölgy,Tócóvölgy,Tocovolgy,HU,CET,47.5293857,21.5884323
551213844,Keszőhidegkút-Gyönk,Keszőhidegkút-Gyönk,Keszohidegkut-Gyonk,HU,CET,46.5972651,18.4264288
576266210,Nógrádszakál,Nógrádszakál,Nogradszakal,HU,CET,48.1779177,19.5217842
576266406,Ipolytarnóc,Ipolytarnóc,Ipolytarnoc,HU,CET,48.2366662,19.6291661
618346248,Acsád,Acsád,Acsad,HU,CET,47.3082805,16.7346998
618346250,Adony,Adony,Adony,HU,CET,47.1061519,18.8478205
619127247,Őriszentpéter,Őriszentpéter,Oriszentpeter,HU,CET,46.8291165,16.4161303
619127249,Döbrököz,Döbrököz,Dobrokoz,HU,CET,46.4159112,18.2527202
619127253,Kurd,Kurd,Kurd,HU,CET,46.4503092,18.3184887
619127259,Szakály-Hőgyész,Szakály-Hőgyész,Szakaly-Hogyesz,HU,CET,46.5239216,18.3891958
619127268,Tolnanémedi,Tolnanémedi,Tolnanemedi,HU,CET,46.7279014,18.4760636
619127272,Sárosd,Sárosd,Sarosd,HU,CET,47.0395458,18.6602571
619127277,Dunai Finomító,Dunai Finomító,Dunai Finomito,HU,CET,47.2942945,18.8790807
619723824,Ikrény,Ikrény,Ikreny,HU,CET,47.6576539,17.5233326
619723825,Moha-Rakodó,Moha-Rakodó,Moha-Rakodo,HU,CET,47.274161,18.3063895
619723827,Moha,Moha,Moha,HU,CET,47.2471009,18.3393194
619723829,Inárcs-Kakucs,Inárcs-Kakucs,Inarcs-Kakucs,HU,CET,47.2470059,19.317831
619723855,Vasúttörténeti Park,Railway History Park,Railway History Park,HU,CET,47.5415302,19.0978413
619723924,Mártély,Mártély,Martely,HU,CET,46.4733306,20.2360613
619723925,Hortobágy,Hortobágy,Hortobagy,HU,CET,47.5860986,21.1544518
619723926,Mándok,Mándok,Mandok,HU,CET,48.3271678,22.1963336
628589424,Egyek,Egyek,Egyek,HU,CET,47.6166317,20.8839237
628589425,Berettyóújfalu,Berettyóújfalu,Berettyoujfalu,HU,CET,47.2121948,21.532285
628589426,Biharkeresztes,Biharkeresztes,Biharkeresztes,HU,CET,47.1354632,21.7219147
628589432,Hajdúsámson,Hajdúsámson,Hajdusamson,HU,CET,47.6081095,21.7549577
628589433,Hajdúböszörmény,Hajdúböszörmény,Hajduboszormeny,HU,CET,47.6686016,21.5240462
628589436,Hajdúnánás,Hajdúnánás,Hajdunanas,HU,CET,47.8318111,21.427473
685038262,Barátság,Barátság,Baratsag,HU,CET,47.6157397,16.6896795
685038296,Fertőboz,Fertőboz,Fertoboz,HU,CET,47.6247237,16.6919878
685038306,Kastély (Nagycenk),Kastély (Nagycenk),Kastely (Nagycenk),HU,CET,47.6108943,16.7054434
703385018,Tiszaújváros,Tiszaújváros,Tiszaujvaros,HU,CET,47.9259811,21.0298451
748766808,Budapest-Déli,Budapest-Déli,Budapest-Deli,HU,CET,47.4994789,19.0248757
780946519,Sárvár,Sárvár,Sarvar,HU,CET,47.2589682,16.929516
842695866,Mindszent,Mindszent,Mindszent,HU,CET,46.5240268,20.194005
911947295,Törökszentmiklós,Törökszentmiklós,Torokszentmiklos,HU,CET,47.1698349,20.4124014
918475941,Verőce,Verőce,Veroce,HU,CET,47.823784,19.031725
929920147,Nagytőke,Nagytőke,Nagytoke,HU,CET,46.7633639,20.2917101
929923092,Szeged-Rókus,Szeged-Rókus,Szeged-Rokus,HU,CET,46.2669679,20.1256137
1037090348,Martfű,Martfű,Martfu,HU,CET,47.0208271,20.2919739
1060125442,Tokaj,Tokaj,Tokaj,HU,CET,48.1125032,21.4063999
1060125451,Zelemér,Zelemér,Zelemer,HU,CET,47.6267844,21.5784683
1060125663,Tarcal,Tarcal,Tarcal,HU,CET,48.1250807,21.3398751
1060125673,Tiszavasvári,Tiszavasvári,Tiszavasvari,HU,CET,47.9453556,21.375099
1060125701,Szikszó,Szikszó,Szikszo,HU,CET,48.2016557,20.9417406
1061100151,Szabadszállás,Szabadszállás,Szabadszallas,HU,CET,46.8705188,19.2103571
1063783451,Olaszliszka-Tolcsva,Olaszliszka-Tolcsva,Olaszliszka-Tolcsva,HU,CET,48.2582639,21.4481162
1063783516,Áta,Áta,Ata,HU,CET,45.9357804,18.3070794
1063783640,Ebes,Ebes,Ebes,HU,CET,47.462531,21.4886492
1063783657,Külsővat,Külsővat,Kulsovat,HU,CET,47.2801632,17.2217599
1065129354,Kiskunmajsa,Kiskunmajsa,Kiskunmajsa,HU,CET,46.5018709,19.727735
1065129364,Szentgál,Szentgál,Szentgal,HU,CET,47.1363631,17.707357
1065129426,Baktalórántháza,Baktalórántháza,Baktaloranthaza,HU,CET,47.9885406,22.0834076
1065129534,Herend,Herend,Herend,HU,CET,47.1367731,17.7604405
1065129544,Kerta,Kerta,Kerta,HU,CET,47.1514242,17.238666
1065129572,Gyömöre,Gyömöre,Gyomore,HU,CET,47.4851273,17.5588677
1065129577,Nyíregyháza külső,Nyíregyháza külső,Nyiregyhaza kulso,HU,CET,47.9429363,21.74013
1065129579,Máriapócs,Máriapócs,Mariapocs,HU,CET,47.8528271,22.0191684
1065129590,Vaja-Rohod,Vaja-Rohod,Vaja-Rohod,HU,CET,48.0064535,22.163588
1065129602,Ják-Balogunyom,Ják-Balogunyom,Jak-Balogunyom,HU,CET,47.1613062,16.6302597
1065129608,Bük,Bük,Buk,HU,CET,47.3886682,16.7523487
1065129623,Csoma-Szabadi,Csoma-Szabadi,Csoma-Szabadi,HU,CET,46.3662762,18.0447574
1065129648,Jászkisér,Jászkisér,Jaszkiser,HU,CET,47.4560088,20.2036094
1065129663,Kapuvár,Kapuvár,Kapuvar,HU,CET,47.5819518,17.0478296
1065129934,Tótkomlós,Tótkomlós,Totkomlos,HU,CET,46.40876,20.7269245
1065129955,Somogyszentpál,Somogyszentpál,Somogyszentpal,HU,CET,46.6390822,17.4783876
1065129962,Halmaj,Halmaj,Halmaj,HU,CET,48.2463354,20.991338
1065129970,Zalacséb-Salomvár,Zalacséb-Salomvár,Zalacseb-Salomvar,HU,CET,46.8578332,16.6612766
1065129977,Taszár,Taszár,Taszar,HU,CET,46.3635084,17.8937782
1065129981,Csabacsűd,Csabacsűd,Csabacsud,HU,CET,46.8227886,20.6635347
1065129992,Emőd,Emőd,Emod,HU,CET,47.9307126,20.8226882
1065130017,Okány,Okány,Okany,HU,CET,46.8924809,21.3391607
1065130058,Boldva,Boldva,Boldva,HU,CET,48.2232084,20.7905513
1065130072,Nagydobos,Nagydobos,Nagydobos,HU,CET,48.0541389,22.3113186
1065130090,Ceglédbercel-Cserő,Ceglédbercel-Cserő,Cegledbercel-Csero,HU,CET,47.2106883,19.6860747
1065130095,Csárdaszállás,Csárdaszállás,Csardaszallas,HU,CET,46.8620282,20.9304298
1065130099,Csisztafürdő,Csisztafürdő,Csisztafurdo,HU,CET,46.682207,17.5614219
1065130111,Szany-Rábaszentandrás,Szany-Rábaszentandrás,Szany-Rabaszentandras,HU,CET,47.4605405,17.3151891
1065130136,Biharnagybajom,Biharnagybajom,Biharnagybajom,HU,CET,47.2087677,21.2217791
1065130189,Hajdúhadház,Hajdúhadház,Hajduhadhaz,HU,CET,47.6872146,21.6796531
1065130191,Tüskevár,Tüskevár,Tuskevar,HU,CET,47.1287944,17.3312585
1065130201,Nyírgelse,Nyírgelse,Nyirgelse,HU,CET,47.7508045,21.9879567
1065130262,Nyírmada,Nyírmada,Nyirmada,HU,CET,48.0590458,22.2031482
1065130266,Füzesgyarmat,Füzesgyarmat,Fuzesgyarmat,HU,CET,47.112977,21.1942838
1065130282,Tajó,Tajó,Tajo,HU,CET,46.4725304,19.6501544
1065130308,Taksony,Taksony,Taksony,HU,CET,47.3205157,19.0770322
1065130320,Lakitelek,Lakitelek,Lakitelek,HU,CET,46.8729421,20.0036441
1065130349,Nagykálló,Nagykálló,Nagykallo,HU,CET,47.870836,21.8256871
1065130379,Kútvölgy,Kútvölgy,Kutvolgy,HU,CET,46.4594147,20.4520893
1065130386,Kiszombor,Kiszombor,Kiszombor,HU,CET,46.1921897,20.4132126
1065130406,Fehérgyarmat,Fehérgyarmat,Fehergyarmat,HU,CET,47.9787929,22.5242139
1065130466,Putnok,Putnok,Putnok,HU,CET,48.2863438,20.4374029
1065130498,Csengele,Csengele,Csengele,HU,CET,46.5383935,19.9091095
1065130519,Kállósemjén,Kállósemjén,Kallosemjen,HU,CET,47.8543948,21.93488
1065130523,Gyula,Gyula,Gyula,HU,CET,46.6564034,21.2736021
1065130535,Galambos,Galambos,Galambos,HU,CET,46.6251538,19.8013513
1065130559,Csömödér-Páka,Csömödér-Páka,Csomoder-Paka,HU,CET,46.6078142,16.6420285
1065130564,Kiskundorozsma,Kiskundorozsma,Kiskundorozsma,HU,CET,46.271631,20.0907976
1065130575,Abaújszántó,Abaújszántó,Abaujszanto,HU,CET,48.2864991,21.181208
1065130578,Bak,Bak,Bak,HU,CET,46.7319788,16.8489803
1065130579,Ófehértó,Ófehértó,Ofeherto,HU,CET,47.9406178,22.0413755
1065130592,Bicere,Bicere,Bicere,HU,CET,46.6598047,21.179531
1065130601,Nagyszénás,Nagyszénás,Nagyszenas,HU,CET,46.6727015,20.6744996
1065130607,Hodász,Hodász,Hodasz,HU,CET,47.8961667,22.2137991
1065130633,Bodrogkeresztúr,Bodrogkeresztúr,Bodrogkeresztur,HU,CET,48.1757511,21.3544178
1065130642,Mezőhegyes,Mezőhegyes,Mezohegyes,HU,CET,46.3107582,20.8161557
1065130714,Kunszentmárton,Kunszentmárton,Kunszentmarton,HU,CET,46.8483521,20.293366
1065130752,Jászapáti,Jászapáti,Jaszapati,HU,CET,47.5135712,20.1553052
1065130840,Baté,Baté,Bate,HU,CET,46.3556809,17.9609652
1065130884,Magyarbánhegyes,Magyarbánhegyes,Magyarbanhegyes,HU,CET,46.4508948,20.9692997
1065130899,Békéscsaba,Békéscsaba,Bekescsaba,HU,CET,46.6698764,21.0811819
1065130907,Eger-Felnémet,Eger-Felnémet,Eger-Felnemet,HU,CET,47.9365077,20.3707538
1080336875,Szob,Szob,Szob,HU,CET,47.8217073,18.8606379
1085346050,Csömödér ÁEV,Csömödér ÁEV,Csomoder AEV,HU,CET,46.6067443,16.6415263
1104399656,Fegyvernek-Örményes,Fegyvernek-Örményes,Fegyvernek-Ormenyes,HU,CET,47.1943642,20.5575311
1141836627,Almamellék,Almamellék,Almamellek,HU,CET,46.1676783,17.8892697
1141836666,Sasrét,Sasrét,Sasret,HU,CET,46.2047702,17.8898627
1165044679,Sárospatak,Sárospatak,Sarospatak,HU,CET,48.3258694,21.5661313
1167814183,Bugac,Bugac,Bugac,HU,CET,46.6842847,19.6770803
1212433939,Novajidrány,Novajidrány,Novajidrany,HU,CET,48.4036385,21.170075
1212434023,Telekgerendás,Telekgerendás,Telekgerendas,HU,CET,46.6557512,20.9636743
1212434034,Petőháza,Petőháza,Petohaza,HU,CET,47.5956531,16.8894395
1212434089,Mezőpeterd,Mezőpeterd,Mezopeterd,HU,CET,47.176076,21.6259309
1212434093,Pinnye,Pinnye,Pinnye,HU,CET,47.6002102,16.7689328
1212434134,Petőfiszállás,Petőfiszállás,Petofiszallas,HU,CET,46.617368,19.8653276
1212434390,Zagyvapálfalva,Zagyvapálfalva,Zagyvapalfalva,HU,CET,48.0675509,19.784993
1212434413,Nagycsere,Nagycsere,Nagycsere,HU,CET,47.5237721,21.7633425
1212434485,Tiszaföldvár,Tiszaföldvár,Tiszafoldvar,HU,CET,46.9755199,20.2766611
1212434499,Taktaharkány,Taktaharkány,Taktaharkany,HU,CET,48.0911589,21.1286317
1212434507,Tiborszállás,Tiborszállás,Tiborszallas,HU,CET,47.8152711,22.402822
1212434580,Rédics,Rédics,Redics,HU,CET,46.618028,16.4710686
1212434623,Gutorfölde,Gutorfölde,Gutorfolde,HU,CET,46.6469122,16.7397344
1212434793,Tornanádaska,Tornanádaska,Tornanadaska,HU,CET,48.5581811,20.7873119
1212434807,Rakamaz,Rakamaz,Rakamaz,HU,CET,48.120243,21.4748304
1212434825,Rábatamási,Rábatamási,Rabatamasi,HU,CET,47.5928208,17.1614883
1212434956,Nagyoroszi,Nagyoroszi,Nagyoroszi,HU,CET,47.9938258,19.1008183
1212435030,Nyársapát,Nyársapát,Nyarsapat,HU,CET,47.1004231,19.7924438
1212435047,Edelény,Edelény,Edeleny,HU,CET,48.2996949,20.7495488
1212435091,Alsórönök,Alsórönök,Alsoronok,HU,CET,46.9642392,16.3781106
1212435125,Szegvár,Szegvár,Szegvar,HU,CET,46.588654,20.2499298
1212435157,Sáp,Sáp,Sap,HU,CET,47.2597075,21.3608643
1212435167,Sajószentpéter,Sajószentpéter,Sajoszentpeter,HU,CET,48.2221607,20.7084071
1212435195,Nyírábrány,Nyírábrány,Nyirabrany,HU,CET,47.5238923,22.0167351
1212435233,Vaszar,Vaszar,Vaszar,HU,CET,47.4025611,17.4964138
1246730240,Rákosszentmihály,Rákosszentmihály,Rakosszentmihaly,HU,CET,47.521187,19.1461087
1257865070,Gönc,Gönc,Gonc,HU,CET,48.4704529,21.2614739
1259198882,Mezőkovácsháza,Mezőkovácsháza,Mezokovacshaza,HU,CET,46.4079814,20.8998869
1259198885,Balástya,Balástya,Balastya,HU,CET,46.4132189,20.001552
1259198900,Bélapátfalva,Bélapátfalva,Belapatfalva,HU,CET,48.0557344,20.3406884
1259198902,Mónosbél,Mónosbél,Monosbel,HU,CET,48.03201,20.329992
1259198903,Bódvaszilas,Bódvaszilas,Bodvaszilas,HU,CET,48.5374496,20.737981
1260955709,Porcsalma-Tyukod,Porcsalma-Tyukod,Porcsalma-Tyukod,HU,CET,47.868073,22.5684461
1260955751,Győrtelek alsó,Győrtelek alsó,Gyortelek also,HU,CET,47.9210689,22.443289
1328628204,Kisirtás,Kisirtás,Kisirtas,HU,CET,47.9141371,18.8777612
1435581047,Hártókút,Hártókút,Hartokut,HU,CET,47.8505742,19.0202694
1435965375,Gyöngyösoldal,Gyöngyösoldal,Gyongyosoldal,HU,CET,46.2554327,18.8522911
1436523066,Hortobágy-Halastó,Hortobágy-Halastó,Hortobagy-Halasto,HU,CET,47.6053649,21.0695718
1437481401,Kaszó,Kaszó,Kaszo,HU,CET,46.3172863,17.2204114
1437481403,Szenta,Szenta,Szenta,HU,CET,46.2738388,17.1811862
1437544220,Mesztegnyő EV,Mesztegnyő EV,Mesztegnyo EV,HU,CET,46.5074977,17.433568
1448733468,Barcs,Barcs,Barcs,HU,CET,45.951743,17.4467318
1448737876,Babócsa,Babócsa,Babocsa,HU,CET,46.0283625,17.3422799
1547493571,Budaörs,Budaörs,Budaors,HU,CET,47.447547,18.9649545
1587550615,Marcali,Marcali,Marcali,HU,CET,46.5804608,17.421483
1670321158,Csanyik,Csanyik,Csanyik,HU,CET,48.1238643,20.648936
1684065427,Szob,Szob,Szob,HU,CET,47.82106,18.8619382
1687607528,Vác,Vác,Vac,HU,CET,47.7827191,19.1330097
1687607534,Vácrátót,Vácrátót,Vacratot,HU,CET,47.7328775,19.2177725
1687827189,Tápiószele,Tápiószele,Tapioszele,HU,CET,47.3462651,19.8737617
1796135494,Gyöngyössolymos,Gyöngyössolymos,Gyongyossolymos,HU,CET,47.8284218,19.9271527
1796135496,Jánoska,Jánoska,Janoska,HU,CET,47.8086078,19.933384
1796135499,Lajosháza,Lajosháza,Lajoshaza,HU,CET,47.8588982,19.9357455
1796135501,Szalajkaház,Szalajkaház,Szalajkahaz,HU,CET,47.8832054,19.9155704
1798245421,Szalkszentmárton,Szalkszentmárton,Szalkszentmarton,HU,CET,46.9708638,19.0237689
1829167896,Jászboldogháza-Jánoshida,Jászboldogháza-Jánoshida,Jaszboldoghaza-Janoshida,HU,CET,47.3673825,20.0010277
1887349123,Puskaporos,Puskaporos,Puskaporos,HU,CET,48.10466,20.6347729
1968165343,Enese,Enese,Enese,HU,CET,47.644145,17.4249134
1992935198,Mátramindszent,Mátramindszent,Matramindszent,HU,CET,47.9973978,19.9389567
2079502878,Tapolca,Tapolca,Tapolca,HU,CET,46.8769912,17.4287883
2184536778,Magyarcsanád,Magyarcsanád,Magyarcsanad,HU,CET,46.1746012,20.6104134
2269118652,Balkány,Balkány,Balkany,HU,CET,47.7715316,21.8488114
2386326591,Pálháza,Pálháza,Palhaza,HU,CET,48.4706634,21.5129091
2430971355,Apostag,Apostag,Apostag,HU,CET,46.8851342,18.9775771
2720648845,Andráshida,Andráshida,Andrashida,HU,CET,46.8630479,16.7793677
2753681384,Szabadbattyán,Szabadbattyán,Szabadbattyan,HU,CET,47.105399,18.3882409
2883269382,Öttevény,Öttevény,Otteveny,HU,CET,47.7195673,17.4894027
2894347408,Budapest-Kelenföld,Budapest-Kelenföld,Budapest-Kelenfold,HU,CET,47.4642992,19.0206155
2971262119,Mezőlak,Mezőlak,Mezolak,HU,CET,47.3236592,17.3644142
2982568488,Rostalló,Rostalló,Rostallo,HU,CET,48.4242989,21.4285766
2982574545,Kőkapu,Kőkapu,Kokapu,HU,CET,48.4266103,21.4401934
3010560233,Budapest-Nyugati,Budapest-Nyugati,Budapest-Nyugati,HU,CET,47.5107203,19.0574804
3046019828,Mahóca,Mahóca,Mahoca,HU,CET,48.1440894,20.5920005
3046019829,Ortástető,Ortástető,Ortasteto,HU,CET,48.1364971,20.6110868
3046043050,Papírgyár,Papírgyár,Papirgyar,HU,CET,48.1135612,20.6602205
3132708773,Nagymaros,Nagymaros,Nagymaros,HU,CET,47.7800282,18.9520597
3138193743,Tisza-parti végállomás,Tisza-parti végállomás,Tisza-parti vegallomas,HU,CET,46.9373248,20.1185895
3141893115,Budapest-Keleti,Budapest Keleti Station,Budapest Keleti Station,HU,CET,47.500412,19.08398
3159360767,Nyíregyháza-Északi kitérő,Nyíregyháza-Északi kitérő,Nyiregyhaza-Eszaki kitero,HU,CET,47.9661959,21.6858668
3260071767,Bugac felső,Bugac felső,Bugac felso,HU,CET,46.6609938,19.6599265
3268470164,Zichyújfalu,Zichyújfalu,Zichyujfalu,HU,CET,47.1244865,18.6721963
3270362167,Miskolc-Gömöri,Miskolc-Gömöri,Miskolc-Gomori,HU,CET,48.106505,20.8004302
3273591233,Hajdúdorog,Hajdúdorog,Hajdudorog,HU,CET,47.805295,21.4930452
3284516683,Nyíregyháza,Nyíregyháza,Nyiregyhaza,HU,CET,47.9465412,21.7051514
3286623351,Kecskemét KK,Kecskemét KK,Kecskemet KK,HU,CET,46.8927194,19.6857458
3306271374,Nyírtelek,Nyírtelek,Nyirtelek,HU,CET,48.0051312,21.6156704
3350644827,Porva-Csesznek,Porva-Csesznek,Porva-Csesznek,HU,CET,47.3269791,17.8414366
3412605384,Kaba,Kaba,Kaba,HU,CET,47.3689609,21.2595445
3543646163,Szárliget,Szárliget,Szarliget,HU,CET,47.5191032,18.4952478
3543646178,Városföld,Városföld,Varosfold,HU,CET,46.8158425,19.7535973
3576408176,Csongrád,Csongrád,Csongrad,HU,CET,46.7044213,20.1401294
3609842991,Diósjenő,Diósjenő,Diosjeno,HU,CET,47.9400265,19.0494616
3629949217,Center,Center,Center,HU,CET,48.2525688,20.3450542
3669062535,Debrecen,Debrecen,Debrecen,HU,CET,47.5198856,21.6287627
3693947081,Demecser,Demecser,Demecser,HU,CET,48.1115364,21.9271024
3730862340,Eplény,Eplény,Epleny,HU,CET,47.1926806,17.9216807
3731378565,Kisvárda,Kisvárda,Kisvarda,HU,CET,48.2081531,22.0782434
3731405240,Komoró,Komoró,Komoro,HU,CET,48.3049716,22.118184
3751784416,Solt,Solt,Solt,HU,CET,46.8016088,19.0109348
3760273996,Piliscsaba,Piliscsaba,Piliscsaba,HU,CET,47.6385535,18.8292471
3760346443,Leányvár,Leányvár,Leanyvar,HU,CET,47.6875892,18.7725541
3992699089,Nagybörzsöny,Nagybörzsöny,Nagyborzsony,HU,CET,47.9312794,18.8378649
4034679208,Tiszapalkonya-Erőmű,Tiszapalkonya-Erőmű,Tiszapalkonya-Eromu,HU,CET,47.9098413,21.0486773
4057764613,Tata,Tata,Tata,HU,CET,47.6639527,18.3278757
4188929522,Sóstóhegy,Sóstóhegy,Sostohegy,HU,CET,48.01213,21.7430073
4188974134,Császárszállás,Császárszállás,Csaszarszallas,HU,CET,47.8883178,21.715477
4188974135,Újfehértó,Újfehértó,Ujfeherto,HU,CET,47.8151451,21.7065345
4214909592,Kecskemét,Kecskemét,Kecskemet,HU,CET,46.9138009,19.7008962
4223413363,Mátravidéki Erőmű,Mátravidéki Erőmű,Matravideki Eromu,HU,CET,47.7195713,19.6737844
4223433116,Szurdokpüspöki,Szurdokpüspöki,Szurdokpuspoki,HU,CET,47.8514986,19.6903567
4223465273,Tar,Tar,Tar,HU,CET,47.9559906,19.7460329
4253452672,Cegléd,Cegléd,Cegled,HU,CET,47.1824696,19.8074365
4256318208,Szabadkígyós,Szabadkígyós,Szabadkigyos,HU,CET,46.6074581,21.1226841
4340981717,Pécsbánya-Rendező,Pécsbánya-Rendező,Pecsbanya-Rendezo,HU,CET,46.0634753,18.2702165
4530022025,Harka,Harka,Harka,HU,CET,47.6415845,16.6190777
4696599905,Celldömölk,Celldömölk,Celldomolk,HU,CET,47.261457,17.1522074
4768462881,Búcsúszentlászló,Búcsúszentlászló,Bucsuszentlaszlo,HU,CET,46.7921367,16.9326684
4858619659,Sajóecseg,Sajóecseg,Sajoecseg,HU,CET,48.185274,20.766587
4955574766,Révfülöp,Révfülöp,Revfulop,HU,CET,46.8290995,17.6323349
4983049198,Zalaszentiván,Zalaszentiván,Zalaszentivan,HU,CET,46.8874705,16.9111031
4989899156,Nagydorog,Nagydorog,Nagydorog,HU,CET,46.6154885,18.6499627
5008124072,Kőszeg,Kőszeg,Koszeg,HU,CET,47.3817353,16.5568922
5196969589,Márianosztra,Márianosztra,Marianosztra,HU,CET,47.8660673,18.8658147
5217774759,Mexikói út,Mexikói út,Mexikoi ut,HU,CET,47.5195853,19.0908328
5217774760,Széchenyi fürdő,Széchenyi fürdő,Szechenyi furdo,HU,CET,47.5174782,19.0812753
5217774761,Hősök tere,Hősök tere,Hosok tere,HU,CET,47.5142154,19.0767759
5217774762,Bajza utca,Bajza utca,Bajza utca,HU,CET,47.5113872,19.0725445
5217774763,Kodály körönd,Kodály körönd,Kodaly korond,HU,CET,47.5092606,19.0693504
5217774764,Vörösmarty utca,Vörösmarty utca,Vorosmarty utca,HU,CET,47.5072389,19.0663322
5217774765,Oktogon,Oktogon,Oktogon,HU,CET,47.5049544,19.0629287
5217774766,Kőbánya-Kispest,Kőbánya-Kispest,Kobanya-Kispest,HU,CET,47.4637172,19.1480153
5217774767,Határ út,Határ út,Hatar ut,HU,CET,47.4658802,19.1259189
5217774768,Pöttyös utca,Pöttyös utca,Pottyos utca,HU,CET,47.4681934,19.1180315
5217774769,Ecseri út,Ecseri út,Ecseri ut,HU,CET,47.4708589,19.1107643
5217774770,Népliget,Népliget,Nepliget,HU,CET,47.4752959,19.0999512
5217774771,Nagyvárad tér,Nagyvárad tér,Nagyvarad ter,HU,CET,47.4786668,19.090409
5217774772,Semmelweis Klinikák,Semmelweis Klinikák,Semmelweis Klinikak,HU,CET,47.4830874,19.0778347
5217774773,Corvin-negyed,Corvin-negyed,Corvin-negyed,HU,CET,47.4852337,19.0716401
5217774774,Ferenciek tere,Ferenciek tere,Ferenciek tere,HU,CET,47.4926283,19.0565214
5217774775,Vörösmarty tér,Vörösmarty tér,Vorosmarty ter,HU,CET,47.4966817,19.0503341
5217774776,Bajcsy-Zsilinszky út,Bajcsy-Zsilinszky út,Bajcsy-Zsilinszky ut,HU,CET,47.4999169,19.0553753
5217774777,Opera,Opera,Opera,HU,CET,47.5022938,19.0589493
5217774778,Arany János utca,Arany János utca,Arany Janos utca,HU,CET,47.5040834,19.0546254
5217774779,Nyugati pályaudvar,Nyugati pályaudvar,Nyugati palyaudvar,HU,CET,47.5112369,19.0564842
5217774780,Lehel tér,Lehel tér,Lehel ter,HU,CET,47.5182391,19.0605508
5217774781,Kelenföld vasútállomás,Kelenföld vasútállomás,Kelenfold vasutallomas,HU,CET,47.4643298,19.0201331
5217774782,Bikás park,Bikás park,Bikas park,HU,CET,47.4650396,19.0329092
5217774783,Újbuda-központ,Újbuda-központ,Ujbuda-kozpont,HU,CET,47.4732151,19.046184
5217774784,Móricz Zsigmond körtér,Móricz Zsigmond körtér,Moricz Zsigmond korter,HU,CET,47.4769307,19.0474068
5217774785,Szent Gellért tér – Műegyetem,Szent Gellért tér – Műegyetem,Szent Gellert ter - Muegyetem,HU,CET,47.4828961,19.054507
5217774787,Kálvin tér,Kálvin tér,Kalvin ter,HU,CET,47.4898982,19.0613723
5217774788,Rákóczi tér,Rákóczi square,Rakoczi square,HU,CET,47.4927304,19.0719578
5217774789,II. János Pál pápa tér,II. János Pál pápa tér,II. Janos Pal papa ter,HU,CET,47.4958303,19.0775339
5217774790,Örs vezér tere,Örs vezér tere,Ors vezer tere,HU,CET,47.502803,19.1350725
5217774791,Pillangó utca,Pillangó utca,Pillango utca,HU,CET,47.5011832,19.1198882
5217774792,Puskás Ferenc Stadion,Puskás Ferenc Stadion,Puskas Ferenc Stadion,HU,CET,47.5002664,19.1059888
5217774793,Keleti pályaudvar,Keleti pályaudvar,Keleti palyaudvar,HU,CET,47.499596,19.0822564
5217774795,Astoria,Astoria,Astoria,HU,CET,47.4947838,19.0616594
5217774796,Deák Ferenc tér,Deák Ferenc tér,Deak Ferenc ter,HU,CET,47.4983508,19.0535905
5217774797,Kossuth Lajos tér,Kossuth Lajos tér,Kossuth Lajos ter,HU,CET,47.5057199,19.0449808
5217774798,Batthyány tér,Batthyány tér,Batthyany ter,HU,CET,47.5068724,19.037782
5217774799,Széll Kálmán tér,Széll Kálmán tér,Szell Kalman ter,HU,CET,47.5077259,19.0263013
5217774800,Déli pályaudvar,Déli pályaudvar,Deli palyaudvar,HU,CET,47.5008855,19.0245985
5217848809,Gyöngyösi utca,Gyöngyösi utca,Gyongyosi utca,HU,CET,47.5490555,19.0733534
5217848810,Göncz Árpád városközpont,Göncz Árpád városközpont,Goncz Arpad varoskozpont,HU,CET,47.532679,19.0667774
5217848811,Dózsa György út,Dózsa György út,Dozsa Gyorgy ut,HU,CET,47.5249055,19.0634163
5217848812,Forgách utca,Forgách utca,Forgach utca,HU,CET,47.5389554,19.0694521
5217848813,Újpest-városkapu,Újpest-városkapu,Ujpest-varoskapu,HU,CET,47.5593306,19.0804103
5237888497,Salgótarján külső,Salgótarján külső,Salgotarjan kulso,HU,CET,48.0895232,19.7910348
5258615751,Apc-Zagyvaszántó,Apc-Zagyvaszántó,Apc-Zagyvaszanto,HU,CET,47.7913275,19.6682928
5258616617,Pásztó,Pásztó,Paszto,HU,CET,47.9190923,19.6887928
5258670625,Selyp,Selyp,Selyp,HU,CET,47.7588316,19.6710982
5262529317,Gecse-Gyarmat,Gecse-Gyarmat,Gecse-Gyarmat,HU,CET,47.4561134,17.5151031
5300178888,Lenti ÁEV,Lenti ÁEV,Lenti AEV,HU,CET,46.6185379,16.5303845
5333649460,Zánka-Köveskál,Zánka-Köveskál,Zanka-Koveskal,HU,CET,46.8729162,17.687821
5333649461,Csomád,Csomád,Csomad,HU,CET,47.6355833,19.2228184
5333649462,Fót,Fót,Fot,HU,CET,47.6113671,19.1816987
5351981911,Ács,Ács,Acs,HU,CET,47.7170332,18.0044256
5435407497,Alcsútdoboz Arborétum,Alcsútdoboz Arborétum,Alcsutdoboz Arboretum,HU,CET,47.4239172,18.5834951
5435526474,Puskás Akadémia,Puskás Akadémia,Puskas Akademia,HU,CET,47.4664086,18.5945804
5435542749,Felcsút,Felcsút,Felcsut,HU,CET,47.4409747,18.5878901
5463144596,Pörböly,Pörböly,Porboly,HU,CET,46.2001848,18.8256694
5530281286,Szentgotthárd,Szentgotthárd,Szentgotthard,HU,CET,46.9574649,16.2633807
5535569567,Komárom,Komárom,Komarom,HU,CET,47.7495823,18.1138895
5566790333,Isaszeg,Isaszeg,Isaszeg,HU,CET,47.5374207,19.3890045
5589074564,Tököl,Tököl,Tokol,HU,CET,47.3131898,18.9739876
5599738752,Mezőtúr,Mezőtúr,Mezotur,HU,CET,47.0134889,20.6194072
5625986025,Törökfái,Törökfái,Torokfai,HU,CET,46.8333083,19.6483676
5910582291,Solymár,Solymár,Solymar,HU,CET,47.5963712,18.9494722
5972892361,Forró-Encs,Forró-Encs,Forro-Encs,HU,CET,48.3273642,21.1174805
5991440733,Szeged,Szeged,Szeged,HU,CET,46.2395942,20.1433189
6088885425,Tállya,Tállya,Tallya,HU,CET,48.2281862,21.2230893
6137205675,Óbuda,Óbuda,Obuda,HU,CET,47.5691195,19.0327128
6164717204,Szeghalom,Szeghalom,Szeghalom,HU,CET,47.015245,21.1482955
6167285150,Dévaványa,Dévaványa,Devavanya,HU,CET,47.034037,20.9433468
6284985778,Kisszénás,Kisszénás,Kisszenas,HU,CET,46.75117,20.721659
6345447451,Békásmegyer,Békásmegyer,Bekasmegyer,HU,CET,47.598089,19.0546042
6349837552,Budakalász,Budakalász,Budakalasz,HU,CET,47.6161355,19.0549536
6349848367,Pomáz,Pomáz,Pomaz,HU,CET,47.6429539,19.0325015
6349856961,Szentendre,Szentendre,Szentendre,HU,CET,47.6607322,19.0751317
6350592155,Esztergom-Kertváros,Esztergom-Kertváros,Esztergom-Kertvaros,HU,CET,47.7429741,18.717657
6354674087,Hűvösvölgy,Hűvösvölgy,Huvosvolgy,HU,CET,47.5411013,18.9636568
6354676965,Virágvölgy,Virágvölgy,Viragvolgy,HU,CET,47.5058353,18.9587408
6354683659,Hárshegy,Hárshegy,Harshegy,HU,CET,47.5353454,18.9613497
6354687156,Szépjuhászné,Szépjuhászné,Szepjuhaszne,HU,CET,47.5284007,18.9552207
6354693345,Jánoshegy,Jánoshegy,Janoshegy,HU,CET,47.5147372,18.9508614
6354697900,Csillebérc,Csillebérc,Csilleberc,HU,CET,47.4981355,18.9616928
6354701370,Széchenyihegy,Széchenyihegy,Szechenyihegy,HU,CET,47.4941227,18.976704
6355384676,Pilisvörösvár,Pilisvörösvár,Pilisvorosvar,HU,CET,47.6147344,18.9012593
6365328784,Szántód,Szántód,Szantod,HU,CET,46.8623903,17.8995729
6365349744,Zamárdi felső,Zamárdi felső,Zamardi felso,HU,CET,46.8865368,17.9718773
6365361929,Szabadisóstó,Szabadisóstó,Szabadisosto,HU,CET,46.9348973,18.1202128
6372285730,Újpest-központ,Újpest-központ,Ujpest-kozpont,HU,CET,47.5603263,19.0906475
6376038704,Fővám tér,Fővám square,Fovam square,HU,CET,47.4861979,19.0576823
6383721768,Főbejárat,Főbejárat,Fobejarat,HU,CET,47.6922076,19.0448306
6407374805,Örs vezér tere,Örs vezér tere,Ors vezer tere,HU,CET,47.5036889,19.1378431
6458635225,Balatonfűzfő,Balatonfűzfő,Balatonfuzfo,HU,CET,47.0597328,18.0426031
6486121484,Háros,Háros,Haros,HU,CET,47.4122226,19.035126
6503462456,Blaha Lujza tér,Blaha Lujza square,Blaha Lujza square,HU,CET,47.4968269,19.0697531
6509897963,Balassagyarmat,Balassagyarmat,Balassagyarmat,HU,CET,48.0713533,19.2936817
6517110142,Aszód,Aszód,Aszod,HU,CET,47.6476137,19.492599
6532463462,Pécel,Pécel,Pecel,HU,CET,47.4937604,19.3383052
6550922632,Kálvin tér,Kálvin tér,Kalvin ter,HU,CET,47.4890817,19.061432
6550925567,Keleti pályaudvar,Keleti pályaudvar,Keleti palyaudvar,HU,CET,47.5002118,19.0813128
6558553216,Hernádnémeti-Bőcs,Hernádnémeti-Bőcs,Hernadnemeti-Bocs,HU,CET,48.0514633,20.985073
6607085788,Gödöllő,Gödöllő,Godollo,HU,CET,47.5933379,19.3579443
6607085789,Nagyicce,Nagyicce,Nagyicce,HU,CET,47.5069494,19.1673747
6607085799,Kerepes,Kerepes,Kerepes,HU,CET,47.553063,19.2708711
6607085804,Cinkota,Cinkota,Cinkota,HU,CET,47.5196828,19.2179577
6607085806,Mogyoród,Mogyoród,Mogyorod,HU,CET,47.5965344,19.2716675
6607085807,Csömör,Csömör,Csomor,HU,CET,47.5450908,19.2249315
6681338676,Csepel,Csepel,Csepel,HU,CET,47.4217019,19.0662891
6694680311,Kőbánya felső,Kőbánya felső,Kobanya felso,HU,CET,47.4918176,19.1338628
6697934937,Szigetcsép,Szigetcsép,Szigetcsep,HU,CET,47.2702477,18.9562742
6712170720,Rákos,Rákos,Rakos,HU,CET,47.4888164,19.1735409
6736760614,Máriabesnyő,Máriabesnyő,Mariabesnyo,HU,CET,47.5958954,19.3890813
6842660421,Győrszentiván,Győrszentiván,Gyorszentivan,HU,CET,47.6886455,17.7460481
6974099855,Boráros tér,Boráros tér,Boraros ter,HU,CET,47.4787204,19.0668593
6974122716,Deák Ferenc tér,Deák Ferenc tér,Deak Ferenc ter,HU,CET,47.4980942,19.0543041
6974122717,Deák Ferenc tér,Deák Ferenc tér,Deak Ferenc ter,HU,CET,47.4977188,19.0537581
6990971884,Pesterzsébet felső,Pesterzsébet felső,Pesterzsebet felso,HU,CET,47.4381203,19.0936765
7011625957,Nagyszentjános,Nagyszentjános,Nagyszentjanos,HU,CET,47.7055438,17.8720198
7016692192,Ferencváros,Ferencváros railway station,Ferencvaros railway station,HU,CET,47.4685737,19.0885971
7041664258,Balatonszárszó,Balatonszárszó,Balatonszarszo,HU,CET,46.8321099,17.8304136
7041674499,Balatonszemes,Balatonszemes,Balatonszemes,HU,CET,46.8120258,17.7765045
7054973732,Hódmezővásárhelyi Népkert,Hódmezővásárhelyi Népkert,Hodmezovasarhelyi Nepkert,HU,CET,46.4029395,20.3116306
7070334610,Vecsés,Vecsés,Vecses,HU,CET,47.4086572,19.2560738
7084525024,Soroksár,Soroksár,Soroksar,HU,CET,47.4022924,19.1233965
7084553530,Rákoshegy,Rákoshegy,Rakoshegy,HU,CET,47.4689328,19.244315
7131957065,Kemecse,Kemecse,Kemecse,HU,CET,48.0653119,21.8018833
7167426889,Magyarnándor,Magyarnándor,Magyarnandor,HU,CET,47.9707897,19.3569062
7167426890,Nógrádkövesd,Nógrádkövesd,Nogradkovesd,HU,CET,47.8795324,19.3713318
7167426891,Acsa-Erdőkürt,Acsa-Erdőkürt,Acsa-Erdokurt,HU,CET,47.8010229,19.3860374
7167426892,Galgamácsa,Galgamácsa,Galgamacsa,HU,CET,47.6938706,19.392589
7208863374,Nagykáta,Nagykáta,Nagykata,HU,CET,47.4109744,19.734901
7208885506,Herceghalom,Herceghalom,Herceghalom,HU,CET,47.493681,18.7457929
7214776436,Angyalföld,Angyalföld,Angyalfold,HU,CET,47.5502218,19.0895103
7248589323,Közvágóhíd,Közvágóhíd,Kozvagohid,HU,CET,47.4659153,19.0774747
7251616133,Dunaharaszti külső,Dunaharaszti külső,Dunaharaszti kulso,HU,CET,47.3602773,19.0864399
7251642634,Ráckeve,Ráckeve,Rackeve,HU,CET,47.1760583,18.9417023
7272331460,Gödöllő,Gödöllő,Godollo,HU,CET,47.5927222,19.3586173
7399473213,Pusztaszabolcs,Pusztaszabolcs,Pusztaszabolcs,HU,CET,47.1393834,18.7618236
7431917792,Jászszentlászló,Jászszentlászló,Jaszszentlaszlo,HU,CET,46.5659223,19.7534531
7562147853,Nógrád,Nógrád,Nograd,HU,CET,47.9022175,19.0471806
7575662350,Székesfehérvár,Székesfehérvár,Szekesfehervar,HU,CET,47.1830169,18.4249947
7687930285,Paks,Paks,Paks,HU,CET,46.6066331,18.8529728
7792484799,Batthyány tér,Batthyány tér,Batthyany ter,HU,CET,47.5071525,19.0394211
7862504631,Százhalombatta,Százhalombatta,Szazhalombatta,HU,CET,47.322579,18.899312
7866120111,Battonya,Battonya,Battonya,HU,CET,46.2819886,21.0041546
8100077739,Báránd,Báránd,Barand,HU,CET,47.2997414,21.2353122
8131906323,Csákánydoroszló,Csákánydoroszló,Csakanydoroszlo,HU,CET,46.9783509,16.4997216
8197311166,Körmend,Körmend,Kormend,HU,CET,47.0160996,16.5972999
8243785549,Algyő,Algyő,Algyo,HU,CET,46.3362865,20.1964154
8302980852,Kétegyháza,Kétegyháza,Ketegyhaza,HU,CET,46.5325471,21.1721021
8353555770,Szécsény,Szécsény,Szecseny,HU,CET,48.0926749,19.521206
8359012136,Esztergom,Esztergom,Esztergom,HU,CET,47.7781762,18.7432699
8359012137,Dorog,Dorog,Dorog,HU,CET,47.7235693,18.7329246
8371157147,Balatonmáriafürdő,Balatonmáriafürdő,Balatonmariafurdo,HU,CET,46.7042141,17.3755539
8371157148,Balatonaliga,Balatonaliga,Balatonaliga,HU,CET,46.984275,18.1707414
8371157150,Kelebia,Kelebia,Kelebia,HU,CET,46.1948037,19.6102549
8371157153,Sátoraljaújhely,Sátoraljaújhely,Satoraljaujhely,HU,CET,48.3858556,21.6575431
8371157155,Őrbottyán,Őrbottyán,Orbottyan,HU,CET,47.6855833,19.2839834
8388835005,Kispest,Kispest,Kispest,HU,CET,47.4475166,19.1569765
8388835011,Pestszentimre,Pestszentimre,Pestszentimre,HU,CET,47.4031139,19.1874556
8398445191,Kecskemét alsó,Kecskemét alsó,Kecskemet also,HU,CET,46.8954299,19.6914773
8399367686,Nagymacs,Nagymacs,Nagymacs,HU,CET,47.5686129,21.4806892
8403327556,Balatonfenyves,Balatonfenyves,Balatonfenyves,HU,CET,46.7134804,17.4829012
8406757171,Pestszentlőrinc,Pestszentlőrinc,Pestszentlorinc,HU,CET,47.4548436,19.1827618
8410326621,Siófok,Siófok,Siofok,HU,CET,46.9078188,18.05406
8417524963,Sáránd,Sáránd,Sarand,HU,CET,47.4152923,21.6251499
8420278688,Rákosrendező,Rákosrendező,Rakosrendezo,HU,CET,47.5269017,19.0908557
8428504702,Pálháza-Ipartelep,Pálháza-Ipartelep,Palhaza-Ipartelep,HU,CET,48.4669531,21.4978451
8431960205,Balatonkeresztúr,Balatonkeresztúr,Balatonkeresztur,HU,CET,46.7038643,17.3685291
8431961831,Csorna,Csorna,Csorna,HU,CET,47.6019587,17.248911
8434994836,Biatorbágy,Biatorbágy,Biatorbagy,HU,CET,47.4802289,18.8345246
8434997975,Almásfüzitő,Almásfüzitő,Almasfuzito,HU,CET,47.7252455,18.2617997
8434997976,Almásfüzitő felső,Almásfüzitő felső,Almasfuzito felso,HU,CET,47.7313272,18.2165567
8437402358,Tokod,Tokod,Tokod,HU,CET,47.7347343,18.6746236
8437402360,Nyergesújfalu,Nyergesújfalu,Nyergesujfalu,HU,CET,47.76109,18.561481
8437402363,Lábatlan,Lábatlan,Labatlan,HU,CET,47.7520934,18.5148825
8437402365,Piszke,Piszke,Piszke,HU,CET,47.7530642,18.4780176
8437402366,Süttő,Süttő,Sutto,HU,CET,47.7612852,18.4548961
8437402369,Neszmély,Neszmély,Neszmely,HU,CET,47.7343712,18.3452734
8437526248,Bodajk,Bodajk,Bodajk,HU,CET,47.3180555,18.2520467
8437526250,Mór,Mór,Mor,HU,CET,47.3695041,18.1888111
8437526251,Bakonysárkány,Bakonysárkány,Bakonysarkany,HU,CET,47.443835,18.1033732
8437526260,Kisbér,Kisbér,Kisber,HU,CET,47.4942543,18.0249355
8440432942,Környe,Környe,Kornye,HU,CET,47.5428823,18.3333604
8440432956,Oroszlány,Oroszlány,Oroszlany,HU,CET,47.4869491,18.309
8446032161,Csór-Nádasdladány,Csór-Nádasdladány,Csor-Nadasdladany,HU,CET,47.1739113,18.2204876
8458031557,Bicske,Bicske,Bicske,HU,CET,47.48431,18.618453
8458047285,Balatonlelle felső,Balatonlelle felső,Balatonlelle felso,HU,CET,46.7947331,17.7201725
8458075882,Balatonboglár,Balatonboglár,Balatonboglar,HU,CET,46.7760578,17.6469638
8499896811,Győrszemere,Győrszemere,Gyorszemere,HU,CET,47.5679825,17.5849431
8517780135,Lepsény,Lepsény,Lepseny,HU,CET,46.987257,18.2475658
8517780137,Kiscséripuszta,Kiscséripuszta,Kiscseripuszta,HU,CET,47.0479861,18.3549576
8518689658,Üllő,Üllő,Ullo,HU,CET,47.3907859,19.3507546
8518689659,Pilis,Pilis,Pilis,HU,CET,47.2795799,19.5370538
8518689660,Albertirsa,Albertirsa,Albertirsa,HU,CET,47.2403404,19.6066508
8530038203,Nagytétény-Diósd,Nagytétény-Diósd,Nagyteteny-Diosd,HU,CET,47.3982611,18.9723339
8560083768,Érdliget,Érdliget,Erdliget,HU,CET,47.3902,18.9379581
8835744772,Szekszárd,Szekszárd,Szekszard,HU,CET,46.3496086,18.7127426
8862293373,Kistolmácsi-tó,Kistolmácsi-tó,Kistolmacsi-to,HU,CET,46.4955575,16.7424409
8880625559,Gárdony,Gárdony,Gardony,HU,CET,47.2060681,18.6247351
8925624383,Táska forgalmi kitérő,Táska forgalmi kitérő,Taska forgalmi kitero,HU,CET,46.66407,17.5169245
8960203485,Balatonszentgyörgy,Balatonszentgyörgy,Balatonszentgyorgy,HU,CET,46.6925583,17.2888824
8968041611,Tárnok,Tárnok,Tarnok,HU,CET,47.3652962,18.8735221
8988992937,Vámosgyörk,Vámosgyörk,Vamosgyork,HU,CET,47.6861124,19.9277785
9010326331,Füzesabony,Füzesabony,Fuzesabony,HU,CET,47.7512151,20.4144571
9023154312,Balatonalmádi,Balatonalmádi,Balatonalmadi,HU,CET,47.0283061,18.0154241
9197583657,Találkozások háza,Találkozások háza,Talalkozasok haza,HU,CET,46.9403714,20.1040299
9212469725,Ercsi,Ercsi,Ercsi,HU,CET,47.2470261,18.8753784
9213648926,Bátaszék,Bátaszék,Bataszek,HU,CET,46.2026429,18.7155622
9213648927,Pörböly,Pörböly,Porboly,HU,CET,46.1991612,18.8283288
9216425257,Dombóvár,Dombóvár,Dombovar,HU,CET,46.3699241,18.1495311
9241199503,Mátrafüred,Mátrafüred,Matrafured,HU,CET,47.8306403,19.9707329
9322082555,Börgönd,Börgönd,Borgond,HU,CET,47.139993,18.5150207
9323345408,Kismaros,Kismaros,Kismaros,HU,CET,47.8277365,19.0134108
9323345409,Morgó,Morgó,Morgo,HU,CET,47.8382121,19.0068392
9323345412,Királyrét,Királyrét,Kiralyret,HU,CET,47.8939105,18.9791397
9323403674,"Miskolc, Dorottya utca","Miskolc, Dorottya utca","Miskolc, Dorottya utca",HU,CET,48.1008834,20.7024416
9323403675,Garadna,Garadna,Garadna,HU,CET,48.1160936,20.5583234
9334329079,Ludas,Ludas,Ludas,HU,CET,47.7239883,20.0956679
9334329080,Nagyút,Nagyút,Nagyut,HU,CET,47.7266539,20.1619565
9334329081,Kál-Kápolna,Kál-Kápolna,Kal-Kapolna,HU,CET,47.7339429,20.2538953
9334329082,Maklár,Maklár,Maklar,HU,CET,47.8078366,20.4047597
9355942020,Újszász,Újszász,Ujszasz,HU,CET,47.2856798,20.0668376
9442125849,Abony,Abony,Abony,HU,CET,47.1732121,20.0174868
9480323206,Papkeszi,Papkeszi,Papkeszi,HU,CET,47.0983493,18.0900165
9480323207,Nagytétény,Nagytétény,Nagyteteny,HU,CET,47.3879209,18.9743711
9480413774,Dunakeszi,Dunakeszi,Dunakeszi,HU,CET,47.6259102,19.1359673
9480413775,Göd,Göd,God,HU,CET,47.6879452,19.1375105
9480413778,Recsk-Kőrakodó,Recsk-Kőrakodó,Recsk-Korakodo,HU,CET,47.926862,20.1290102
9480413788,Recsk-Parádfürdő,Recsk-Parádfürdő,Recsk-Paradfurdo,HU,CET,47.9316639,20.1065599
9480413792,Mátraballa,Mátraballa,Matraballa,HU,CET,47.9844697,20.0242723
9480929156,Miskolc-Repülőtér,Miskolc-Repülőtér,Miskolc-Repuloter,HU,CET,48.1338995,20.7888976
9481003163,Tószeg,Tószeg,Toszeg,HU,CET,47.0979635,20.1384311
9481003167,Kisszállás,Kisszállás,Kisszallas,HU,CET,46.2786664,19.5387644
9481003168,Dunavecse,Dunavecse,Dunavecse,HU,CET,46.9200237,18.980307
9481003170,Piroska-Gyártelep,Piroska-Gyártelep,Piroska-Gyartelep,HU,CET,47.1331419,20.1262571
9481003171,Gyömrő,Gyömrő,Gyomro,HU,CET,47.4296516,19.393589
9481003172,Mende,Mende,Mende,HU,CET,47.4267644,19.4402087
9481003173,Sülysáp,Sülysáp,Sulysap,HU,CET,47.4516969,19.527192
9481153346,Földeák,Földeák,Foldeak,HU,CET,46.3137401,20.4881875
9481153350,Rákospalota-Újpest,Rákospalota-Újpest,Rakospalota-Ujpest,HU,CET,47.5656707,19.1121259
9481153359,Kiskunmajsa KK,Kiskunmajsa KK,Kiskunmajsa KK,HU,CET,46.5049234,19.7251969
9481153365,Szank,Szank,Szank,HU,CET,46.5502513,19.6673982
9481153370,Ágerdőmajor,Ágerdőmajor,Agerdomajor,HU,CET,47.7763788,22.4291434
9481428076,Jakabszállás,Jakabszállás,Jakabszallas,HU,CET,46.766117,19.6043519
9481638129,Eger Téglagyár,Eger Téglagyár,Eger Teglagyar,HU,CET,47.8935973,20.396824
9481731647,Középrigóc,Középrigóc,Kozeprigoc,HU,CET,45.9704704,17.5249642
9481731663,Sellye,Sellye,Sellye,HU,CET,45.8731748,17.8591421
9481803762,Sopron,Sopron,Sopron,HU,CET,47.6776491,16.5868912
9483069313,Kőbánya-Kispest,Kőbánya-Kispest,Kobanya-Kispest,HU,CET,47.4636485,19.149674
9498572327,Nagyigmánd-Bábolna,Nagyigmánd-Bábolna,Nagyigmand-Babolna,HU,CET,47.6306113,18.050807
9522199480,Mereta rakodó,Mereta rakodó,Mereta rakodo,HU,CET,46.5412377,16.7507559
9819657208,Szilvásvárad,Szilvásvárad,Szilvasvarad,HU,CET,48.1142446,20.378963
9836163221,Monostorpályi,Monostorpályi,Monostorpalyi,HU,CET,47.3905404,21.7746574
9836163222,Hosszúpályi,Hosszúpályi,Hosszupalyi,HU,CET,47.3994094,21.7292278
9836163223,Hajdúbagos,Hajdúbagos,Hajdubagos,HU,CET,47.4028944,21.6625496
9849963679,Mátéházapuszta,Mátéházapuszta,Matehazapuszta,HU,CET,46.1501278,19.0637903
9849963680,Bácsbokod-Bácsborsód,Bácsbokod-Bácsborsód,Bacsbokod-Bacsborsod,HU,CET,46.1156551,19.1598332
9849963682,Bácsalmás,Bácsalmás,Bacsalmas,HU,CET,46.1178352,19.3468191
9849963683,Mélykút,Mélykút,Melykut,HU,CET,46.2128625,19.3704515
9849963684,Jánoshalma,Jánoshalma,Janoshalma,HU,CET,46.2928058,19.3307244
9849963686,Kunfehértó,Kunfehértó,Kunfeherto,HU,CET,46.3559904,19.4169081
9974664547,Tápiógyörgye,Tápiógyörgye,Tapiogyorgye,HU,CET,47.32469,19.9500005
9974664548,Tápiószecső,Tápiószecső,Tapioszecso,HU,CET,47.4428138,19.6150563
9993048555,Lőkösháza,Lőkösháza,Lokoshaza,HU,CET,46.4322872,21.2378089
9993062361,Karcag,Karcag,Karcag,HU,CET,47.3033779,20.9295606
9993062362,Kisújszállás,Kisújszállás,Kisujszallas,HU,CET,47.2240648,20.7512975
10143234154,Godóvár,Godóvár,Godovar,HU,CET,48.0001164,18.9004433
10143234157,Kemence,Kemence,Kemence,HU,CET,48.0133038,18.8941589
10143234158,Feketevölgy kitérő,Feketevölgy kitérő,Feketevolgy kitero,HU,CET,47.9817093,18.8966104
10159959224,Délegyháza,Délegyháza,Delegyhaza,HU,CET,47.2535308,19.0609389
10159959225,Kápolnásnyék,Kápolnásnyék,Kapolnasnyek,HU,CET,47.2456082,18.6930827
10169288686,Abádszalók,Abádszalók,Abadszalok,HU,CET,47.4552295,20.5533301
10169288687,Kisköre,Kisköre,Kiskore,HU,CET,47.4953064,20.4815788
10173828073,Monor,Monor,Monor,HU,CET,47.3453975,19.4370172
10173828075,Táborfalva,Táborfalva,Taborfalva,HU,CET,47.0984577,19.4791827
10177776723,Balmazújváros,Balmazújváros,Balmazujvaros,HU,CET,47.6138623,21.3479517
10187913838,Örkény,Örkény,Orkeny,HU,CET,47.132959,19.4471443
10187913839,Dabas,Dabas,Dabas,HU,CET,47.1945973,19.3294956
10188174920,Ócsa,Ócsa,Ocsa,HU,CET,47.3013702,19.2326039
10217402959,Maglód,Maglód,Maglod,HU,CET,47.4390106,19.3399267
10218098413,Portelek,Portelek,Portelek,HU,CET,47.4180602,19.9585658
10218161658,Jászberény,Jászberény,Jaszbereny,HU,CET,47.494691,19.8934511
10218177881,Pusztamonostor,Pusztamonostor,Pusztamonostor,HU,CET,47.5643272,19.794366
10218199324,Jászfényszaru,Jászfényszaru,Jaszfenyszaru,HU,CET,47.5933103,19.753685
10223561634,Szatymaz,Szatymaz,Szatymaz,HU,CET,46.3456882,20.0440445
10223586983,Szabadegyháza,Szabadegyháza,Szabadegyhaza,HU,CET,47.0828119,18.7047726
10223586987,Kunhegyes,Kunhegyes,Kunhegyes,HU,CET,47.3765143,20.6408205
10223593517,Dömsöd,Dömsöd,Domsod,HU,CET,47.1104658,19.0797618
10223953746,Kecskemét-Máriaváros,Kecskemét-Máriaváros,Kecskemet-Mariavaros,HU,CET,46.9011715,19.6759194
10223953783,Katonatelep,Katonatelep,Katonatelep,HU,CET,46.9631376,19.7188763
10224175224,Kenderes,Kenderes,Kenderes,HU,CET,47.2543348,20.6862997
10224175227,Tornyospálca,Tornyospálca,Tornyospalca,HU,CET,48.268365,22.2020313
10225088825,Nagykőrös,Nagykőrös,Nagykoros,HU,CET,47.0384333,19.7601987
10225137886,Martonvásár,Martonvásár,Martonvasar,HU,CET,47.3205241,18.7809307
10225137894,Szolnok,Szolnok,Szolnok,HU,CET,47.1792403,20.1753294
10251785748,Fényeslitke,Fényeslitke,Fenyeslitke,HU,CET,48.2671243,22.1073085
10578407347,Szentkozma,Szentkozma,Szentkozma,HU,CET,47.231212,21.4638432
10968027734,Berente-Rendező,Berente-Rendező,Berente-Rendezo,HU,CET,48.2423318,20.6680044
11672840349,Nagyirtáspuszta,Nagyirtáspuszta,Nagyirtaspuszta,HU,CET,47.9013457,18.8768078
11876769768,Rajka,Rajka,Rajka,HU,CET,47.9943532,17.1929192
11878737947,Hegyeshalom,Hegyeshalom,Hegyeshalom,HU,CET,47.9132102,17.146734
12471822632,Kimle-Károlyháza,Kimle-Károlyháza,Kimle-Karolyhaza,HU,CET,47.8044408,17.3421655
13192858595,Lukas Hoffmann,Lukas Hoffmann,Lukas Hoffmann,HU,CET,47.6134002,21.0730321
13336796570,Kiskunfélegyháza,Kiskunfélegyháza,Kiskunfelegyhaza,HU,CET,46.7070213,19.8342276
13338115493,Csépa,Csépa,Csepa,HU,CET,46.8124723,20.1347664
13603090203,Szent Gellért tér – Műegyetem,Szent Gellért tér – Műegyetem,Szent Gellert ter - Muegyetem,HU,CET,47.4828961,19.054507
13634656090,Állatkert,Állatkert,Allatkert,HU,CET,46.0954837,18.227716
13634722901,Dömörkapu,Dömörkapu,Domorkapu,HU,CET,46.0994,18.2306827
13877118064,Derecske,Derecske,Derecske,HU,CET,47.3641033,21.583407
13877118072,Konyár,Konyár,Konyar,HU,CET,47.3234266,21.666112
13877131524,Nagykereki,Nagykereki,Nagykereki,HU,CET,47.1908892,21.8002647
26212732,Villafranca de Navarra,Villafranca de Navarra,Villafranca de Navarra,ES,CET,42.2807416,-1.745439
26230611,Castejón de Ebro,Castejón de Ebro,Castejon de Ebro,ES,CET,42.1728682,-1.6924387
26377011,Tudela de Navarra,Tudela de Navarra,Tudela de Navarra,ES,CET,42.0594993,-1.5976655
26377358,Ribaforada,Ribaforada,Ribaforada,ES,CET,41.9970724,-1.5154793
26382278,Guadalajara - Yebes,Guadalajara - Yebes,Guadalajara - Yebes,ES,CET,40.5863681,-3.1264338
26837751,Etxarri-Aranatz,Etxarri-Aranatz,Etxarri-Aranatz,ES,CET,42.9109612,-2.0717275
28976223,Tremañes - Carreño,Tremañes - Carreño,Tremanes - Carreno,ES,CET,43.528561,-5.6947515
29568804,Vitoria-Gasteiz,Vitoria-Gasteiz,Vitoria-Gasteiz,ES,CET,42.841303,-2.672697
30502600,Llames,Llames,Llames,ES,CET,43.3688007,-5.5252464
30546837,Avilés,Avilés,Aviles,ES,CET,43.561475,-5.9229558
30547011,Cudillero,Cudillero,Cudillero,ES,CET,43.5509064,-6.1521582
30547259,El Caleyo,El Caleyo,El Caleyo,ES,CET,43.3291331,-5.8728724
30550910,Soto Ribera,Soto Ribera,Soto Ribera,ES,CET,43.3085554,-5.8752416
33727552,Nueva Montaña,Nueva Montaña,Nueva Montana,ES,CET,43.444404,-3.8472394
36130230,Selgua,Selgua,Selgua,ES,CET,41.9059598,0.1484671
36130273,Binefar,Binefar,Binefar,ES,CET,41.8497394,0.2914061
54336554,Villamayor,Villamayor,Villamayor,ES,CET,43.3626634,-5.3032585
58157938,Bulnes,Bulnes,Bulnes,ES,CET,43.2382236,-4.8233275
58157942,Poncebos,Poncebos,Poncebos,ES,CET,43.2576952,-4.8303163
59613809,Amaña,Amaña,Amana,ES,CET,43.1845581,-2.4802593
79715911,Fuencarral,Fuencarral,Fuencarral,ES,CET,40.5015362,-3.6821615
81326544,Alagón,Alagón,Alagon,ES,CET,41.7716254,-1.1126082
81326546,Cabañas de Ebro,Cabañas de Ebro,Cabanas de Ebro,ES,CET,41.7883119,-1.1684037
100986804,Sant Isidre,Sant Isidre,Sant Isidre,ES,CET,39.4510701,-0.4026173
108478880,Cadavedo,Cadavedo,Cadavedo,ES,CET,43.5428908,-6.3918198
184051644,San Miguel de las Dueñas,San Miguel de las Dueñas,San Miguel de las Duenas,ES,CET,42.5865006,-6.5239266
191262271,Sevilla - Santa Justa,Sevilla - Santa Justa,Sevilla - Santa Justa,ES,CET,37.3920924,-5.9752061
241896202,Orpesa,Orpesa,Orpesa,ES,CET,40.0922912,0.1399978
244184062,Tafalla,Tafalla,Tafalla,ES,CET,42.525751,-1.6712149
246573025,Viérnoles,Viérnoles,Viernoles,ES,CET,43.3243879,-4.0540426
246824210,Borriana - Les Alqueries,Borriana - Les Alqueries,Borriana - Les Alqueries,ES,CET,39.8965047,-0.1040509
246824211,Almassora,Almassora,Almassora,ES,CET,39.9548766,-0.076922
247377447,Brazatortas - Veredas,Brazatortas - Veredas,Brazatortas - Veredas,ES,CET,38.6688617,-4.316654
254453384,Toledo,Toledo,Toledo,ES,CET,39.8625625,-4.0108266
255454508,Cabezón de Pisuerga,Cabezón de Pisuerga,Cabezon de Pisuerga,ES,CET,41.7372464,-4.6512697
257347410,Soria,Soria,Soria,ES,CET,41.7553456,-2.4756125
258983214,Fuengirola,Fuengirola,Fuengirola,ES,CET,36.5418102,-4.623976
259009677,La Colina,La Colina,La Colina,ES,CET,36.6421595,-4.4923719
259009686,Los Álamos,Los Álamos,Los Alamos,ES,CET,36.6447488,-4.4855
259044351,Gata,Gata,Gata,ES,CET,38.7752231,0.0873865
259092311,El Casar,El Casar,El Casar,ES,CET,40.3185283,-3.7096898
259183803,Les Palmes,Les Palmes,Les Palmes,ES,CET,40.0233663,-0.0016131
259625422,Cádiz,Cádiz,Cadiz,ES,CET,36.5279393,-6.2868833
260383905,Cortadura,Cortadura,Cortadura,ES,CET,36.4943578,-6.268106
261006106,la Pobla de Lillet,la Pobla de Lillet,la Pobla de Lillet,ES,CET,42.2413116,1.964948
264034596,El Romeral,El Romeral,El Romeral,ES,CET,39.6939703,-3.4300967
264034930,Villacañas,Villacañas,Villacanas,ES,CET,39.6219709,-3.3302479
264605155,Masies,Masies,Masies,ES,CET,39.5665085,-0.4052632
266131580,Villaverde de Pontones,Villaverde de Pontones,Villaverde de Pontones,ES,CET,43.4112444,-3.7036647
274618728,Frómista,Frómista,Fromista,ES,CET,42.2648724,-4.4023891
287467020,Marcilla de Navarra,Marcilla de Navarra,Marcilla de Navarra,ES,CET,42.3347126,-1.7172237
291282434,Marrón,Marrón,Marron,ES,CET,43.3465255,-3.4210458
295249249,Bunyola,Bunyola,Bunyola,ES,CET,39.6974505,2.6941475
295249363,Sóller,Sóller,Soller,ES,CET,39.7646765,2.7151232
321577458,Sigüenza,Sigüenza,Siguenza,ES,CET,41.0714453,-2.6462246
325231127,Plasencia,Plasencia,Plasencia,ES,CET,40.0222577,-6.0996298
338879384,Tui,Tui,Tui,ES,CET,42.0566044,-8.6432589
348597701,Gádor,Gádor,Gador,ES,CET,36.9514966,-2.4875137
349044413,Mirabel,Mirabel,Mirabel,ES,CET,39.8662062,-6.2289502
357542461,Sedes,Sedes,Sedes,ES,CET,43.542639,-8.1401997
357542629,Santa Icía,Santa Icía,Santa Icia,ES,CET,43.4997832,-8.2000046
357554430,San Sadurniño,San Sadurniño,San Sadurnino,ES,CET,43.5461125,-8.0780669
358501945,Barracas,Barracas,Barracas,ES,CET,40.0115585,-0.696416
358544296,Puerto del Escandón,Puerto del Escandón,Puerto del Escandon,ES,CET,40.273207,-0.9851952
359166884,Cella,Cella,Cella,ES,CET,40.4552887,-1.2447902
362214339,Neda,Neda,Neda,ES,CET,43.4953011,-8.1610847
367715785,Montserrat,Montserrat,Montserrat,ES,CET,41.5919748,1.8363422
367715798,Sant Joan,Sant Joan,Sant Joan,ES,CET,41.5887646,1.8333554
368243347,Teruel,Teruel,Teruel,ES,CET,40.3409853,-1.1104182
373377538,Montserrat,Montserrat,Montserrat,ES,CET,41.5923076,1.8368462
373377542,Santa Cova,Santa Cova,Santa Cova,ES,CET,41.5924361,1.8394195
448128332,Casetas,Casetas,Casetas,ES,CET,41.7227337,-1.0204905
453651815,Pontevedra,Pontevedra,Pontevedra,ES,CET,42.421679,-8.6354004
472297810,Riquelme - Sucina,Riquelme - Sucina,Riquelme - Sucina,ES,CET,37.8957747,-0.9733981
495990620,Ordizia,Ordizia,Ordizia,ES,CET,43.0526137,-2.1792201
500847066,Moixent,Moixent,Moixent,ES,CET,38.8781338,-0.7530892
500857327,Alzira,Alzira,Alzira,ES,CET,39.1531972,-0.4506755
500857328,Algemesí,Algemesí,Algemesi,ES,CET,39.193145,-0.4409302
500857331,L'Ènova - Manuel,L'Ènova - Manuel,L'Enova - Manuel,ES,CET,39.0502003,-0.4773298
500857332,La Pobla Llarga,La Pobla Llarga,La Pobla Llarga,ES,CET,39.0832888,-0.4696305
500890432,Ciudad Expo,Ciudad Expo,Ciudad Expo,ES,CET,37.3492614,-6.0516924
513291332,Legorreta,Legorreta,Legorreta,ES,CET,43.085804,-2.1409622
529914130,Museu del Ciment,Museu del Ciment,Museu del Ciment,ES,CET,42.2592672,1.9771542
530777095,Vic,Vic,Vic,ES,CET,41.93099,2.2485905
539005521,Cabeza Del Buey,Cabeza Del Buey,Cabeza Del Buey,ES,CET,38.7239357,-5.2270776
539006238,Almadenejos - Almadén,Almadenejos - Almadén,Almadenejos - Almaden,ES,CET,38.7404428,-4.7303075
540372481,Gomecello,Gomecello,Gomecello,ES,CET,41.0423127,-5.541157
552964731,Gallarta,Gallarta,Gallarta,ES,CET,43.3193692,-3.0674382
594262575,El Pedroso de la Armuña,El Pedroso de la Armuña,El Pedroso de la Armuna,ES,CET,41.079873,-5.4066375
596122585,Zuera,Zuera,Zuera,ES,CET,41.8771898,-0.7638077
598602872,Pozaldez,Pozaldez,Pozaldez,ES,CET,41.3676573,-4.8356607
608988814,Legazpi,Legazpi,Legazpi,ES,CET,43.0510088,-2.33048
617134268,Cartagena,Cartagena,Cartagena,ES,CET,37.6050294,-0.9749724
617136990,Cartagena,Cartagena,Cartagena,ES,CET,37.6035899,-0.9772749
620144475,Zarautz,Zarautz,Zarautz,ES,CET,43.2842145,-2.1710593
651274704,Deba,Deba,Deba,ES,CET,43.2936429,-2.3555485
678832648,Orduña,Orduña,Orduna,ES,CET,42.9946628,-3.0159761
683124105,Ugao-Miraballes,Ugao-Miraballes,Ugao-Miraballes,ES,CET,43.1791952,-2.9028305
683597660,Valencia de Alcántara,Valencia de Alcántara,Valencia de Alcantara,ES,CET,39.4269364,-7.2307248
688952420,Tavernes de la Valldigna,Tavernes de la Valldigna,Tavernes de la Valldigna,ES,CET,39.0789891,-0.2261383
707998668,Villalegre,Villalegre,Villalegre,ES,CET,43.5400278,-5.9022353
717295164,Media Legua,Media Legua,Media Legua,ES,CET,37.6078629,-0.953675
717295373,Vista Alegre,Vista Alegre,Vista Alegre,ES,CET,37.6092712,-0.9441146
718490529,Mendaro,Mendaro,Mendaro,ES,CET,43.2521961,-2.3878988
719030091,Europa,Europa,Europa,ES,CET,37.3375758,-5.9351995
737198383,Balsicas Mar Menor,Balsicas Mar Menor,Balsicas Mar Menor,ES,CET,37.8188005,-0.950939
737223165,San Claudio,San Claudio,San Claudio,ES,CET,43.3553156,-5.9177948
739420193,El Pinillo,El Pinillo,El Pinillo,ES,CET,36.6098894,-4.5154405
739420234,Torremuelle,Torremuelle,Torremuelle,ES,CET,36.5822976,-4.5670844
748204748,Muro,Muro,Muro,ES,CET,39.7341547,3.0320799
770218121,Tres Cantos,Tres Cantos,Tres Cantos,ES,CET,40.5989059,-3.715653
791063229,Zamora,Zamora,Zamora,ES,CET,41.5160013,-5.7397823
838494405,Aldaia,Aldaia,Aldaia,ES,CET,39.4609623,-0.4637445
845763449,El Goloso,El Goloso,El Goloso,ES,CET,40.5584694,-3.7138301
895881917,Pizarra,Pizarra,Pizarra,ES,CET,36.7643147,-4.7119965
915443518,Zurita,Zurita,Zurita,ES,CET,43.3476778,-3.9910016
917059169,Moncofa,Moncofa,Moncofa,ES,CET,39.8208789,-0.1623621
919627525,Las Cabezas de San Juan,Las Cabezas de San Juan,Las Cabezas de San Juan,ES,CET,37.0185216,-5.9456942
968361236,l'Hospitalet de Llobregat,l'Hospitalet de Llobregat,l'Hospitalet de Llobregat,ES,CET,41.3642387,2.100942
1028108477,Las Aletas,Las Aletas,Las Aletas,ES,CET,36.5441255,-6.1984507
1064038509,Requena - Utiel,Requena - Utiel,Requena - Utiel,ES,CET,39.5217526,-1.1347266
1069592576,Ponferrada,Ponferrada,Ponferrada,ES,CET,42.5456621,-6.6024924
1073008477,Casatejada,Casatejada,Casatejada,ES,CET,39.8919896,-5.6776371
1113085650,Benicarló - Peníscola,Benicarló - Peníscola,Benicarlo - Peniscola,ES,CET,40.4276673,0.4151605
1113111468,Tortosa,Tortosa,Tortosa,ES,CET,40.8071214,0.5228767
1123926567,Jimena de la Frontera,Jimena de la Frontera,Jimena de la Frontera,ES,CET,36.424264,-5.4341723
1126592624,Almansa,Almansa,Almansa,ES,CET,38.8676509,-1.1055743
1147563224,Zaragoza-Miraflores,Zaragoza-Miraflores,Zaragoza-Miraflores,ES,CET,41.6331858,-0.8683152
1151623443,Alcantarilla,Alcantarilla,Alcantarilla,ES,CET,37.9665017,-1.2081553
1152895181,Villaverde Bajo,Villaverde Bajo,Villaverde Bajo,ES,CET,40.352592,-3.6839811
1164461464,Illescas,Illescas,Illescas,ES,CET,40.1208535,-3.8422557
1283643485,Zarandas-Naya,Zarandas-Naya,Zarandas-Naya,ES,CET,37.6715103,-6.5576858
1314402001,Cariñena,Cariñena,Carinena,ES,CET,41.3357992,-1.2290891
1330680970,Brinkola,Brinkola,Brinkola,ES,CET,43.0187986,-2.3344667
1336831385,Benacazón,Benacazón,Benacazon,ES,CET,37.3571118,-6.2079862
1362170795,UIB,UIB,UIB,ES,CET,39.6346089,2.6480014
1403430108,Salteras,Salteras,Salteras,ES,CET,37.4102906,-6.0989709
1419646439,Puebla de Sanabria,Puebla de Sanabria,Puebla de Sanabria,ES,CET,42.0455151,-6.6269909
1492679575,Minaya,Minaya,Minaya,ES,CET,39.240651,-2.3485
1495837646,Don Benito,Don Benito,Don Benito,ES,CET,38.9670555,-5.8629267
1497802227,Gelida Inferior,Gelida Inferior,Gelida Inferior,ES,CET,41.4481553,1.8647396
1497802242,Gelida Superior,Gelida Superior,Gelida Superior,ES,CET,41.4405906,1.8645887
1534461496,Las Águilas,Las Águilas,Las Aguilas,ES,CET,40.3814589,-3.7803772
1536500006,Haro,Haro,Haro,ES,CET,42.5837127,-2.8491348
1560751686,Los Barrios,Los Barrios,Los Barrios,ES,CET,36.1737741,-5.4606314
1567648473,Aeropuerto de Jerez,Aeropuerto de Jerez,Aeropuerto de Jerez,ES,CET,36.7512312,-6.066446
1584912833,la Plana - Picamoixons,la Plana - Picamoixons,la Plana - Picamoixons,ES,CET,41.3060436,1.1950017
1585031955,Alcover,Alcover,Alcover,ES,CET,41.2616043,1.1741729
1585506300,Arroyo de Malpartida,Arroyo de Malpartida,Arroyo de Malpartida,ES,CET,39.4680669,-6.5344706
1624701431,Reanes,Reanes,Reanes,ES,CET,43.379154,-5.5626506
1625248209,Aboño/Musel,Aboño/Musel,Abono/Musel,ES,CET,43.5552368,-5.7177209
1625248341,Viveiro-Apeadoiro,Viveiro-Apeadoiro,Viveiro-Apeadoiro,ES,CET,43.6630576,-7.5921151
1625248357,Xuances,Xuances,Xuances,ES,CET,43.6880988,-7.5538634
1625258031,A Palla,A Palla,A Palla,ES,CET,43.5504527,-8.0187108
1625341600,Ciudad de la Justicia,Ciudad de la Justicia,Ciudad de la Justicia,ES,CET,36.7180202,-4.4633808
1625341615,La Unión,La Unión,La Union,ES,CET,36.7107004,-4.4401116
1625341635,Portada Alta,Portada Alta,Portada Alta,ES,CET,36.7193474,-4.453026
1669114248,Rajadell,Rajadell,Rajadell,ES,CET,41.7323609,1.6985763
1672469482,Azpeitia,Azpeitia,Azpeitia,ES,CET,43.1858322,-2.2612688
1680233321,Aeri de Montserrat,Aeri de Montserrat,Aeri de Montserrat,ES,CET,41.5912107,1.8533903
1687418069,O Ponto,O Ponto,O Ponto,ES,CET,43.5148488,-8.1775968
1687419180,O Alto do Castaño,O Alto do Castaño,O Alto do Castano,ES,CET,43.5031565,-8.1956237
1692189268,Arcade,Arcade,Arcade,ES,CET,42.3404114,-8.6106694
1702273020,Villar de Chinchilla,Villar de Chinchilla,Villar de Chinchilla,ES,CET,38.9060857,-1.4897031
1708943387,Ecoparc,Ecoparc,Ecoparc,ES,CET,41.3301838,2.1370899
1708943427,ZAL | Riu Vell,ZAL | Riu Vell,ZAL | Riu Vell,ES,CET,41.3237458,2.1331165
1725424332,Pesquera,Pesquera,Pesquera,ES,CET,43.0822501,-4.073755
1732357745,Aguilar de Campoo,Aguilar de Campoo,Aguilar de Campoo,ES,CET,42.7852684,-4.2337453
1732357761,Herrera de Pisuerga,Herrera de Pisuerga,Herrera de Pisuerga,ES,CET,42.5986754,-4.3164721
1732357762,Monzón de Campos,Monzón de Campos,Monzon de Campos,ES,CET,42.1055648,-4.501729
1732357763,Osorno,Osorno,Osorno,ES,CET,42.4141808,-4.3572812
1735270823,Quart de Poblet,Quart de Poblet,Quart de Poblet,ES,CET,39.480827,-0.4417848
1738646773,El Puerto de Santa María,El Puerto de Santa María,El Puerto de Santa Maria,ES,CET,36.6041992,-6.2169966
1741275667,Zafra,Zafra,Zafra,ES,CET,38.4139494,-6.4051801
1782062632,Magaz,Magaz,Magaz,ES,CET,41.9764953,-4.4319843
1836639300,Ricla-La Almunia,Ricla-La Almunia,Ricla-La Almunia,ES,CET,41.5012756,-1.4027915
1842017741,Ourense-Empalme,Ourense-Empalme,Ourense-Empalme,ES,CET,42.350692,-7.872551
1857241320,Moreda,Moreda,Moreda,ES,CET,37.4311254,-3.3107459
1864468754,Pedrosa,Pedrosa,Pedrosa,ES,CET,43.0123409,-3.7378104
1876310708,Vilamartín de Valdeorras,Vilamartín de Valdeorras,Vilamartin de Valdeorras,ES,CET,42.4115191,-7.0614161
1876320716,Canaval,Canaval,Canaval,ES,CET,42.4827661,-7.5876858
1900394161,Guareña,Guareña,Guarena,ES,CET,38.896918,-6.1290195
1906593808,Molledo Portolín,Molledo Portolín,Molledo Portolin,ES,CET,43.1454787,-4.0390611
1914054304,Figueres Vilafant,Figueres Vilafant,Figueres Vilafant,ES,CET,42.2646953,2.9426836
1920075087,Pancorbo,Pancorbo,Pancorbo,ES,CET,42.6302053,-3.1128184
1928833209,Monistrol Enllaç (Cremallera),Monistrol Enllaç (Cremallera),Monistrol Enllac (Cremallera),ES,CET,41.6103555,1.8492151
1935793978,Monforte de Lemos,Monforte de Lemos,Monforte de Lemos,ES,CET,42.5295233,-7.503136
1939943099,Palencia,Palencia,Palencia,ES,CET,42.0157277,-4.5338617
1966626240,Can Ros,Can Ros,Can Ros,ES,CET,41.3993392,2.0049369
1972336082,Llerena,Llerena,Llerena,ES,CET,38.2377459,-6.0096212
1986914415,Corcos-Aguilarejo,Corcos-Aguilarejo,Corcos-Aguilarejo,ES,CET,41.766353,-4.6233694
1996921750,Coslada Central,Coslada Central,Coslada Central,ES,CET,40.4238571,-3.5619617
1998634565,Llançà,Llançà,Llanca,ES,CET,42.3668,3.1491602
1998751056,Lalín,Lalín,Lalin,ES,CET,42.6324367,-8.1428602
2021580965,Villena,Villena,Villena,ES,CET,38.6322663,-0.8679515
2039781019,Mérida,Mérida,Merida,ES,CET,38.9215856,-6.3430521
2044176476,Alegría-Dulantzi,Alegría-Dulantzi,Alegria-Dulantzi,ES,CET,42.8490443,-2.5146291
2046477540,Manzanos,Manzanos,Manzanos,ES,CET,42.742736,-2.8673352
2046477543,Nanclares-Langraiz,Nanclares-Langraiz,Nanclares-Langraiz,ES,CET,42.8160304,-2.804854
2049475258,Universitat Autònoma,Universitat Autònoma,Universitat Autonoma,ES,CET,41.5030016,2.1024232
2052060244,Almuradiel-Viso del Marques,Almuradiel-Viso del Marques,Almuradiel-Viso del Marques,ES,CET,38.514365,-3.5019392
2056581884,L'Aldea - Amposta - Tortosa,L'Aldea - Amposta - Tortosa,L'Aldea - Amposta - Tortosa,ES,CET,40.7535866,0.6145466
2059962961,As Ferrerías,As Ferrerías,As Ferrerias,ES,CET,43.5279577,-8.1504004
2059962962,Pedroso,Pedroso,Pedroso,ES,CET,43.5366481,-8.1092699
2059973150,Xuvia,Xuvia,Xuvia,ES,CET,43.5172324,-8.1612847
2074611275,Santa Eulalia del Campo,Santa Eulalia del Campo,Santa Eulalia del Campo,ES,CET,40.5730555,-1.312919
2074634373,Villafranca del Campo,Villafranca del Campo,Villafranca del Campo,ES,CET,40.6837723,-1.3582262
2089759574,Recajo,Recajo,Recajo,ES,CET,42.4498521,-2.3369894
2089761594,Agoncillo,Agoncillo,Agoncillo,ES,CET,42.4435543,-2.29167
2090074703,Alcanadre,Alcanadre,Alcanadre,ES,CET,42.407592,-2.1219746
2090086360,Arrúbal,Arrúbal,Arrubal,ES,CET,42.4308609,-2.2560781
2090101642,Féculas-Navarra,Féculas-Navarra,Feculas-Navarra,ES,CET,42.4111574,-2.0980062
2090104052,Lodosa,Lodosa,Lodosa,ES,CET,42.3806467,-2.0712762
2091426364,Calahorra,Calahorra,Calahorra,ES,CET,42.3106958,-1.9578188
2091429119,Rincón de Soto,Rincón de Soto,Rincon de Soto,ES,CET,42.2300474,-1.8478614
2091431019,Alfaro,Alfaro,Alfaro,ES,CET,42.1866089,-1.7481374
2091462887,Noain-Aeropuerto / Aireportua,Noain-Aeropuerto / Aireportua,Noain-Aeropuerto / Aireportua,ES,CET,42.7546944,-1.6362064
2091476633,Almazán - Villa,Almazán - Villa,Almazan - Villa,ES,CET,41.4891948,-2.5253397
2091973591,Venta de Baños,Venta de Baños,Venta de Banos,ES,CET,41.9174015,-4.4962674
2092341608,Colmenar Viejo,Colmenar Viejo,Colmenar Viejo,ES,CET,40.6452011,-3.7765636
2112127610,Alcorcón Central,Alcorcón Central,Alcorcon Central,ES,CET,40.3499384,-3.8319872
2118941959,Uharte-Arakil,Uharte-Arakil,Uharte-Arakil,ES,CET,42.9203922,-1.9748294
2121281730,Olite,Olite,Olite,ES,CET,42.4851261,-1.6497603
2125146085,l'Ametlla de Mar,l'Ametlla de Mar,l'Ametlla de Mar,ES,CET,40.8861996,0.8004544
2143686198,la Pobla de Segur,la Pobla de Segur,la Pobla de Segur,ES,CET,42.2399963,0.9661614
2158044594,Barcelona - Sants,Barcelona - Sants,Barcelona - Sants,ES,CET,41.3790068,2.1400042
2170852034,La Gineta,La Gineta,La Gineta,ES,CET,39.1116091,-2.0004535
2182333421,Algeciras-Paco de Lucía,Algeciras-Paco de Lucía,Algeciras-Paco de Lucia,ES,CET,36.1266399,-5.4501752
2190026009,Monzón-Río Cinca,Monzón-Río Cinca,Monzon-Rio Cinca,ES,CET,41.9137179,0.1968963
2192841858,Los Frailes,Los Frailes,Los Frailes,ES,CET,37.628359,-6.5369091
2203343273,Babilafuente,Babilafuente,Babilafuente,ES,CET,40.9722843,-5.4305259
2209660914,Montblanc,Montblanc,Montblanc,ES,CET,41.3765162,1.1657117
2232327698,Campillo,Campillo,Campillo,ES,CET,41.2595933,-5.0179179
2238588521,Barallobre,Barallobre,Barallobre,ES,CET,43.4628782,-8.1886027
2238595941,Perlío-Fene,Perlío-Fene,Perlio-Fene,ES,CET,43.4723381,-8.1748625
2240188565,Móra la Nova,Móra la Nova,Mora la Nova,ES,CET,41.1064228,0.6534183
2242865371,Cervera,Cervera,Cervera,ES,CET,41.6737016,1.2747179
2242865394,Sant Martí de Sesgueioles,Sant Martí de Sesgueioles,Sant Marti de Sesgueioles,ES,CET,41.7013242,1.4862739
2269474720,Villanueva de Córdoba-Los Pedroches,Villanueva de Córdoba-Los Pedroches,Villanueva de Cordoba-Los Pedroches,ES,CET,38.2552415,-4.5714216
2282080227,Alhama de Aragón,Alhama de Aragón,Alhama de Aragon,ES,CET,41.2945142,-1.9042888
2282123376,Ariza,Ariza,Ariza,ES,CET,41.309432,-2.0599609
2282450274,Aguilar de Segarra,Aguilar de Segarra,Aguilar de Segarra,ES,CET,41.738753,1.6237253
2284687616,Quintana del Puente,Quintana del Puente,Quintana del Puente,ES,CET,42.0799608,-4.1985544
2288768949,Viana,Viana,Viana,ES,CET,41.5240658,-4.7545603
2291368732,Lasao,Lasao,Lasao,ES,CET,43.2186053,-2.2570486
2320749276,Villada,Villada,Villada,ES,CET,42.2451307,-4.9706796
2328131197,Cañaveral,Cañaveral,Canaveral,ES,CET,39.7888148,-6.3745221
2328131198,Erustes,Erustes,Erustes,ES,CET,39.9493512,-4.487562
2328131200,Monfragüe,Monfragüe,Monfrague,ES,CET,39.937619,-6.1012466
2328131201,Montearagón,Montearagón,Montearagon,ES,CET,39.9607703,-4.6465599
2328131202,Oropesa de Toledo,Oropesa de Toledo,Oropesa de Toledo,ES,CET,39.9218531,-5.1862074
2328131203,Talavera de la Reina,Talavera de la Reina,Talavera de la Reina,ES,CET,39.9706341,-4.8265448
2328131205,Torrijos,Torrijos,Torrijos,ES,CET,39.9788063,-4.2831624
2331789915,Monreal del Campo,Monreal del Campo,Monreal del Campo,ES,CET,40.782289,-1.3608474
2333726540,San Vicente de Alcántara,San Vicente de Alcántara,San Vicente de Alcantara,ES,CET,39.3815547,-7.1169827
2340360836,San Fernando-Bahía Sur,San Fernando-Bahía Sur,San Fernando-Bahia Sur,ES,CET,36.4679215,-6.206875
2353364389,Aces,Aces,Aces,ES,CET,43.4399088,-6.0657919
2353404074,Peñaflor,Peñaflor,Penaflor,ES,CET,43.4029303,-6.045175
2353485234,Las Campas/Les Campes,Las Campas/Les Campes,Las Campas/Les Campes,ES,CET,43.3638968,-5.8832674
2364846599,Iznalloz,Iznalloz,Iznalloz,ES,CET,37.3958204,-3.527761
2366145381,Cabra del Santo Cristo-Alicún,Cabra del Santo Cristo-Alicún,Cabra del Santo Cristo-Alicun,ES,CET,37.6565877,-3.2623676
2369495811,Navalperal,Navalperal,Navalperal,ES,CET,40.5909344,-4.4086279
2370627584,Arévalo,Arévalo,Arevalo,ES,CET,41.0470722,-4.7019329
2371189635,Vigo-Guixar,Vigo-Guixar,Vigo-Guixar,ES,CET,42.2395164,-8.7118818
2371681583,Villaquirán,Villaquirán,Villaquiran,ES,CET,42.2156639,-3.9996183
2379193791,Benalmadena - Arroyo de la Miel,Benalmadena - Arroyo de la Miel,Benalmadena - Arroyo de la Miel,ES,CET,36.5990753,-4.5365181
2379638924,Benigànim,Benigànim,Beniganim,ES,CET,38.9383286,-0.4532279
2381701827,Agurain-Salvatierra de Álava,Agurain-Salvatierra de Álava,Agurain-Salvatierra de Alava,ES,CET,42.8463131,-2.3888912
2383253431,Paredes de Nava,Paredes de Nava,Paredes de Nava,ES,CET,42.1506834,-4.6976267
2383262907,Becerril de Campos,Becerril de Campos,Becerril de Campos,ES,CET,42.1046859,-4.6472648
2384166014,Sahagún,Sahagún,Sahagun,ES,CET,42.3693956,-5.0226022
2384202227,Santas Martas,Santas Martas,Santas Martas,ES,CET,42.4598787,-5.3867265
2386227009,Paracuellos-Sabiñán,Paracuellos-Sabiñán,Paracuellos-Sabinan,ES,CET,41.4288735,-1.5675577
2386248261,Morés,Morés,Mores,ES,CET,41.4785498,-1.566252
2386248277,Morata de Jalón,Morata de Jalón,Morata de Jalon,ES,CET,41.4754959,-1.4785725
2389630162,Santa Cruz de Mudela,Santa Cruz de Mudela,Santa Cruz de Mudela,ES,CET,38.6445907,-3.4513524
2393743376,Tembleque,Tembleque,Tembleque,ES,CET,39.7225089,-3.496978
2393787650,Villasequilla,Villasequilla,Villasequilla,ES,CET,39.879523,-3.7284893
2397422303,Socuéllamos,Socuéllamos,Socuellamos,ES,CET,39.2785405,-2.7753928
2398452226,La Roda de Albacete,La Roda de Albacete,La Roda de Albacete,ES,CET,39.1993175,-2.1629221
2400545326,Novelda-Aspe,Novelda-Aspe,Novelda-Aspe,ES,CET,38.4072636,-0.7775541
2400728055,Épila,Épila,Epila,ES,CET,41.609715,-1.3011662
2402710369,Alcobendas - San Sebastián de los Reyes,Alcobendas - San Sebastián de los Reyes,Alcobendas - San Sebastian de los Reyes,ES,CET,40.5467468,-3.6346007
2412639596,Urtx-Alp,Urtx-Alp,Urtx-Alp,ES,CET,42.3765024,1.8968274
2420238745,Rafelbunyol,Rafelbunyol,Rafelbunyol,ES,CET,39.5879683,-0.3308699
2459459539,Logroño,Logroño,Logrono,ES,CET,42.4575743,-2.4408195
2463961443,Itsasondo,Itsasondo,Itsasondo,ES,CET,43.0683734,-2.1625334
2464005848,Beasain,Beasain,Beasain,ES,CET,43.0460967,-2.20234
2483779639,Fornells de la Selva,Fornells de la Selva,Fornells de la Selva,ES,CET,41.9349663,2.8094752
2518537266,Daimiel,Daimiel,Daimiel,ES,CET,39.0614095,-3.6040793
2519683289,Almagro,Almagro,Almagro,ES,CET,38.8955125,-3.7096502
2542907152,Alcalá de Henares,Alcalá de Henares,Alcala de Henares,ES,CET,40.4890599,-3.366189
2579743614,Quero,Quero,Quero,ES,CET,39.5042227,-3.2663651
2580000640,Campredó,Campredó,Campredo,ES,CET,40.7590764,0.5558624
2609534280,Málaga María Zambrano,Málaga María Zambrano,Malaga Maria Zambrano,ES,CET,36.7116198,-4.4323605
2609596171,Doce de Octubre,Doce de Octubre,Doce de Octubre,ES,CET,40.3790211,-3.6987395
2609596185,Embajadores,Embajadores,Embajadores,ES,CET,40.4052249,-3.7028935
2609596192,Maestra Justa Freire-Polideportivo Aluche,Maestra Justa Freire-Polideportivo Aluche,Maestra Justa Freire-Polideportivo Aluche,ES,CET,40.3835465,-3.7686258
2609596200,Laguna,Laguna,Laguna,ES,CET,40.3992313,-3.7447243
2609596207,Puente Alcocer,Puente Alcocer,Puente Alcocer,ES,CET,40.3503366,-3.7050198
2611833480,Carvajal,Carvajal,Carvajal,ES,CET,36.5703735,-4.5938788
2611857647,Guadalhorce,Guadalhorce,Guadalhorce,ES,CET,36.6925835,-4.4831135
2624608403,Campillos,Campillos,Campillos,ES,CET,37.0320313,-4.8635041
2665900431,Cartuja,Cartuja,Cartuja,ES,CET,37.4072404,-6.0101215
2674576493,Torre Pacheco,Torre Pacheco,Torre Pacheco,ES,CET,37.7469426,-0.9670576
2711347325,l'Espluga de Francolí,l'Espluga de Francolí,l'Espluga de Francoli,ES,CET,41.4004742,1.1032654
2713026494,Camp de Tarragona,Camp de Tarragona,Camp de Tarragona,ES,CET,41.1921725,1.2735682
2725947903,Marçà - Falset,Marçà - Falset,Marca - Falset,ES,CET,41.1309254,0.8105075
2725947939,Pradell,Pradell,Pradell,ES,CET,41.1331603,0.8586408
2725948021,Riudecanyes - Botarell,Riudecanyes - Botarell,Riudecanyes - Botarell,ES,CET,41.1400477,0.975778
2726030723,Juneda,Juneda,Juneda,ES,CET,41.5439188,0.8255252
2891273096,el Papiol,el Papiol,el Papiol,ES,CET,41.4354962,2.0025582
2897360350,Paraninfo,Paraninfo,Paraninfo,ES,CET,36.7179935,-4.4887014
2899831261,els Guiamets,els Guiamets,els Guiamets,ES,CET,41.0959105,0.7477839
2961586517,Cortes de Navarra,Cortes de Navarra,Cortes de Navarra,ES,CET,41.9153579,-1.4208711
2961672592,Gaucin,Gaucin,Gaucin,ES,CET,36.5402389,-5.3868218
2962633346,Badajoz,Badajoz,Badajoz,ES,CET,38.8907326,-6.9816158
2962633353,Montijo,Montijo,Montijo,ES,CET,38.9135792,-6.5986655
2962633354,Guadiana,Guadiana,Guadiana,ES,CET,38.9217726,-6.6900225
2969107075,Carpio,Carpio,Carpio,ES,CET,41.2155611,-5.1145329
2974661834,Astorga,Astorga,Astorga,ES,CET,42.4593977,-6.0470591
2981344588,Calañas,Calañas,Calanas,ES,CET,37.6517751,-6.8762865
2981357671,Valdelamusa,Valdelamusa,Valdelamusa,ES,CET,37.7871802,-6.8738811
2981726993,Vallvidrera Inferior,Vallvidrera Inferior,Vallvidrera Inferior,ES,CET,41.4092615,2.1113141
2992332327,El Prat Estació,El Prat Estació,El Prat Estacio,ES,CET,41.3316672,2.0901291
2992332329,Les Moreres,Les Moreres,Les Moreres,ES,CET,41.3289845,2.1030715
2992352638,Mercabarna,Mercabarna,Mercabarna,ES,CET,41.3335696,2.1112293
3006639152,Portela,Portela,Portela,ES,CET,42.5177,-8.654353
3053302580,Lantueno Santiurde,Lantueno Santiurde,Lantueno Santiurde,ES,CET,43.0582276,-4.0842074
3150316666,Mogro,Mogro,Mogro,ES,CET,43.4249982,-3.9604347
3316606134,Ascó,Ascó,Asco,ES,CET,41.1823199,0.569052
3321848202,Las Mellizas,Las Mellizas,Las Mellizas,ES,CET,36.8732189,-4.7192019
3344868499,Llíria,Llíria,Lliria,ES,CET,39.6225864,-0.5907218
3344868501,Benaguasil,Benaguasil,Benaguasil,ES,CET,39.598988,-0.5842003
3344868510,Fondo de Benaguasil,Fondo de Benaguasil,Fondo de Benaguasil,ES,CET,39.5926935,-0.5783058
3344868540,L'Eliana,L'Eliana,L'Eliana,ES,CET,39.5616244,-0.5359523
3344868555,Montesol,Montesol,Montesol,ES,CET,39.5554391,-0.5318048
3344868583,El Clot,El Clot,El Clot,ES,CET,39.5499038,-0.5279753
3344868893,Entrepins,Entrepins,Entrepins,ES,CET,39.5432596,-0.5140201
3344868907,La Canyada,La Canyada,La Canyada,ES,CET,39.5269572,-0.4871045
3344868933,Fuente del Jarro,Fuente del Jarro,Fuente del Jarro,ES,CET,39.5111574,-0.4640764
3344868942,Santa Rita,Santa Rita,Santa Rita,ES,CET,39.5059042,-0.455317
3344868949,Paterna,Paterna,Paterna,ES,CET,39.4988913,-0.4419403
3345267594,Campament,Campament,Campament,ES,CET,39.4958186,-0.4352732
3345267612,Les Carolines-Fira,Les Carolines-Fira,Les Carolines-Fira,ES,CET,39.4990148,-0.4249245
3345267627,Benimàmet,Benimàmet,Benimamet,ES,CET,39.5018496,-0.4187199
3345267630,Cantereria,Cantereria,Cantereria,ES,CET,39.5025382,-0.4119442
3345948137,Bétera,Bétera,Betera,ES,CET,39.5907287,-0.457496
3345948138,Horta Vella,Horta Vella,Horta Vella,ES,CET,39.5819969,-0.4428387
3345948167,Seminari-CEU,Seminari-CEU,Seminari-CEU,ES,CET,39.5497488,-0.3896096
3345948177,Moncada-Alfara,Moncada-Alfara,Moncada-Alfara,ES,CET,39.5435011,-0.3885714
3345979148,Godella,Godella,Godella,ES,CET,39.5191851,-0.4140999
3345979175,Burjassot-Godella,Burjassot-Godella,Burjassot-Godella,ES,CET,39.5131257,-0.4116669
3345979191,Burjassot,Burjassot,Burjassot,ES,CET,39.5082938,-0.4067919
3348096550,Beniferri,Beniferri,Beniferri,ES,CET,39.4908715,-0.3993909
3348096551,Campanar,Campanar,Campanar,ES,CET,39.4835506,-0.3941092
3348096560,Túria,Túria,Turia,ES,CET,39.4782542,-0.3902759
3348096581,Plaça Espanya,Plaça Espanya,Placa Espanya,ES,CET,39.4662197,-0.3820885
3348104711,Safranar,Safranar,Safranar,ES,CET,39.4550851,-0.3977688
3348104720,Patraix,Patraix,Patraix,ES,CET,39.4564669,-0.3903421
3352043905,Paiporta,Paiporta,Paiporta,ES,CET,39.4322203,-0.4178775
3352207373,Alboraia Peris Aragó,Alboraia Peris Aragó,Alboraia Peris Arago,ES,CET,39.5008914,-0.3523606
3352207380,Alboraia Palmaret,Alboraia Palmaret,Alboraia Palmaret,ES,CET,39.4958197,-0.3555609
3352207389,Machado,Machado,Machado,ES,CET,39.492086,-0.3587134
3352213311,Benimaclet,Benimaclet,Benimaclet,ES,CET,39.4848096,-0.362352
3352213320,Facultats - Manuel Broseta,Facultats - Manuel Broseta,Facultats - Manuel Broseta,ES,CET,39.4781042,-0.3618837
3352213337,Alameda,Alameda,Alameda,ES,CET,39.4731081,-0.3660177
3352213360,Colón,Colón,Colon,ES,CET,39.4701853,-0.3708376
3352213598,Avinguda del Cid,Avinguda del Cid,Avinguda del Cid,ES,CET,39.4685471,-0.3979341
3353533804,Nou d'Octubre,Nou d'Octubre,Nou d'Octubre,ES,CET,39.4707625,-0.4068717
3353533813,Mislata,Mislata,Mislata,ES,CET,39.4739864,-0.4181175
3353533822,Mislata Almassil,Mislata Almassil,Mislata Almassil,ES,CET,39.4754869,-0.4227833
3353533834,Faitanar,Faitanar,Faitanar,ES,CET,39.4776777,-0.4334105
3353533852,Salt de l'Aigua,Salt de l'Aigua,Salt de l'Aigua,ES,CET,39.4853071,-0.4504393
3353533866,Manises,Manises,Manises,ES,CET,39.4895834,-0.4594256
3353533886,Aeroport,Aeroport,Aeroport,ES,CET,39.4921903,-0.474374
3354222947,Ayora,Ayora,Ayora,ES,CET,39.4677747,-0.3431272
3354222956,Amistat,Amistat,Amistat,ES,CET,39.4703326,-0.35049
3354222973,Bailén,Bailén,Bailen,ES,CET,39.4635964,-0.3792761
3355509822,Almàssera,Almàssera,Almassera,ES,CET,39.512224,-0.3542038
3355509840,Meliana,Meliana,Meliana,ES,CET,39.5280174,-0.3516256
3355509854,Foios,Foios,Foios,ES,CET,39.5372733,-0.353825
3355509874,Albalat dels Sorells,Albalat dels Sorells,Albalat dels Sorells,ES,CET,39.5453392,-0.3479811
3356644308,Museros,Museros,Museros,ES,CET,39.5617469,-0.3407042
3356644325,Massamagrell,Massamagrell,Massamagrell,ES,CET,39.5704987,-0.3326119
3356644330,La Pobla de Farnals,La Pobla de Farnals,La Pobla de Farnals,ES,CET,39.5789133,-0.3300548
3357315762,La Cova,La Cova,La Cova,ES,CET,39.4989133,-0.4847032
3357315772,la Presa,la Presa,la Presa,ES,CET,39.5170789,-0.5159906
3357315784,Masia de Traver,Masia de Traver,Masia de Traver,ES,CET,39.5382647,-0.5466326
3357315808,Riba-roja de Túria,Riba-roja de Túria,Riba-roja de Turia,ES,CET,39.5433067,-0.5594273
3361694307,Col·legi El Vedat,Col·legi El Vedat,Col*legi El Vedat,ES,CET,39.4112747,-0.4602511
3361694328,Sant Ramon,Sant Ramon,Sant Ramon,ES,CET,39.3843789,-0.4671275
3361694354,Picassent,Picassent,Picassent,ES,CET,39.3630565,-0.4646699
3361694361,Omet,Omet,Omet,ES,CET,39.353152,-0.4737535
3361694364,Espioca,Espioca,Espioca,ES,CET,39.3264194,-0.4686776
3363474821,Font Almaguer,Font Almaguer,Font Almaguer,ES,CET,39.2893312,-0.4645398
3363474837,Alginet,Alginet,Alginet,ES,CET,39.2629324,-0.4748626
3363474842,Ausiàs March,Ausiàs March,Ausias March,ES,CET,39.2493719,-0.4922095
3363474849,Carlet,Carlet,Carlet,ES,CET,39.2273926,-0.5251284
3363474852,Benimodo,Benimodo,Benimodo,ES,CET,39.216471,-0.5195945
3363474876,Montortal,Montortal,Montortal,ES,CET,39.1741512,-0.5157137
3397396364,Badal,Badal,Badal,ES,CET,41.3755518,2.1289265
3397396373,Bon Pastor,Bon Pastor,Bon Pastor,ES,CET,41.4361256,2.2048081
3397396374,Camp de l'Arpa,Camp de l'Arpa,Camp de l'Arpa,ES,CET,41.4146858,2.1810127
3397396375,Can Boixeres,Can Boixeres,Can Boixeres,ES,CET,41.3665823,2.0915183
3397396378,Canyelles,Canyelles,Canyelles,ES,CET,41.4417701,2.1664392
3397396384,Collblanc,Collblanc,Collblanc,ES,CET,41.3758735,2.1184045
3397396385,Congrés | Indians,Congrés | Indians,Congres | Indians,ES,CET,41.4234164,2.1812853
3397396389,La Rambla | Drassanes,La Rambla | Drassanes,La Rambla | Drassanes,ES,CET,41.3766732,2.1757735
3397396595,Entença,Entença,Entenca,ES,CET,41.3839818,2.1449598
3397396601,Fontana,Fontana,Fontana,ES,CET,41.4020564,2.1529786
3397396602,Gavarra,Gavarra,Gavarra,ES,CET,41.3579852,2.0792152
3397396606,Gorg,Gorg,Gorg,ES,CET,41.4404408,2.2336924
3397396608,Horta,Horta,Horta,ES,CET,41.4296898,2.1603155
3397396609,Hospital Clínic,Hospital Clínic,Hospital Clinic,ES,CET,41.3881615,2.1505425
3397396622,Llefià,Llefià,Llefia,ES,CET,41.4413034,2.2175477
3397396625,Maragall,Maragall,Maragall,ES,CET,41.4250282,2.176504
3397396626,Maria Cristina,Maria Cristina,Maria Cristina,ES,CET,41.38794,2.1262221
3397396629,Montbau,Montbau,Montbau,ES,CET,41.4305954,2.1450351
3397396631,Mundet,Mundet,Mundet,ES,CET,41.4355422,2.1483831
3397396633,Onze de Setembre,Onze de Setembre,Onze de Setembre,ES,CET,41.4297598,2.193435
3397396640,Penitents,Penitents,Penitents,ES,CET,41.4175413,2.1411326
3397396644,Plaça del Centre,Plaça del Centre,Placa del Centre,ES,CET,41.3818207,2.1356301
3397396647,Pubilla Cases,Pubilla Cases,Pubilla Cases,ES,CET,41.3738133,2.1071207
3397396650,Roquetes,Roquetes,Roquetes,ES,CET,41.447355,2.1757834
3397396664,Tarragona,Tarragona,Tarragona,ES,CET,41.378444,2.1453675
3397396678,Vallcarca,Vallcarca,Vallcarca,ES,CET,41.4119065,2.1445239
3397396679,Valldaura,Valldaura,Valldaura,ES,CET,41.4380037,2.1568764
3397396684,Vilapicina,Vilapicina,Vilapicina,ES,CET,41.43046,2.1681725
3397396686,Zona Universitària,Zona Universitària,Zona Universitaria,ES,CET,41.3842442,2.1116863
3397396687,la Salut,la Salut,la Salut,ES,CET,41.442733,2.2245758
3397396688,les Corts,les Corts,les Corts,ES,CET,41.3841337,2.1308782
3420418504,Roses,Roses,Roses,ES,CET,39.4926732,-0.4671623
3592103272,Salomó,Salomó,Salomo,ES,CET,41.2233947,1.3765911
3592103996,Vilaverd,Vilaverd,Vilaverd,ES,CET,41.3376342,1.1764923
3711686028,Valdestillas,Valdestillas,Valdestillas,ES,CET,41.4887437,-4.772948
3762214740,Arriate,Arriate,Arriate,ES,CET,36.790954,-5.1405656
3762221430,Benaojan-Montejaque,Benaojan-Montejaque,Benaojan-Montejaque,ES,CET,36.7137087,-5.2461358
3762227970,Setenil,Setenil,Setenil,ES,CET,36.8625972,-5.1213522
3762485517,La Luz - La Paz,La Luz - La Paz,La Luz - La Paz,ES,CET,36.6954164,-4.4513131
3762485520,Puerta Blanca,Puerta Blanca,Puerta Blanca,ES,CET,36.6917962,-4.4559168
3826212457,Bárcena,Bárcena,Barcena,ES,CET,43.1285848,-4.053812
3857310426,Dueñas,Dueñas,Duenas,ES,CET,41.8712426,-4.5407333
3899928383,Bilbao - Mercancías / Merkantziak,Bilbao - Mercancías / Merkantziak,Bilbao - Mercancias / Merkantziak,ES,CET,43.3447237,-3.0607227
3934286489,Ibarbengoa,Ibarbengoa,Ibarbengoa,ES,CET,43.3632762,-3.0069775
3954388458,Balaguer,Balaguer,Balaguer,ES,CET,41.7892187,0.8146922
3973025564,Catarroja,Catarroja,Catarroja,ES,CET,39.4000723,-0.399188
3973025583,Massanassa,Massanassa,Massanassa,ES,CET,39.4091688,-0.3953228
3973594599,Alfafar - Benetússer,Alfafar - Benetússer,Alfafar - Benetusser,ES,CET,39.422329,-0.3925914
3973594649,Silla,Silla,Silla,ES,CET,39.3617545,-0.4149384
3974050269,Sollana,Sollana,Sollana,ES,CET,39.2792758,-0.3790618
3974050289,Sueca,Sueca,Sueca,ES,CET,39.205796,-0.3079878
3974050309,Cullera,Cullera,Cullera,ES,CET,39.1779377,-0.2634928
3979312391,Rambla Just Oliveras,Rambla Just Oliveras,Rambla Just Oliveras,ES,CET,41.3639652,2.0998719
4004837188,Platja i Grau de Gandia,Platja i Grau de Gandia,Platja i Grau de Gandia,ES,CET,38.9902173,-0.1624206
4033752071,Ávila,Ávila,Avila,ES,CET,40.6570906,-4.6830022
4179891043,Zaragoza-Goya,Zaragoza-Goya,Zaragoza-Goya,ES,CET,41.6439153,-0.8913425
4213612164,Luceros,Luceros,Luceros,ES,CET,38.3460283,-0.4906238
4213612165,Mercado,Mercado,Mercado,ES,CET,38.3481553,-0.4848257
4217804413,La Vecilla,La Vecilla,La Vecilla,ES,CET,42.85511,-5.4120667
4327711505,Enllaç,Enllaç,Enllac,ES,CET,39.6906676,2.9512554
4329414305,Inca,Inca,Inca,ES,CET,39.718103,2.9058376
4338239783,Tardienta,Tardienta,Tardienta,ES,CET,41.9755672,-0.5384281
4338272266,Santa Magdalena de Pulpis,Santa Magdalena de Pulpis,Santa Magdalena de Pulpis,ES,CET,40.3585915,0.2935883
4343762070,Aeropuerto,Aeropuerto,Aeropuerto,ES,CET,36.6777495,-4.4901616
4344674995,Palacio de los Deportes,Palacio de los Deportes,Palacio de los Deportes,ES,CET,36.6845619,-4.4583141
4348737763,Aragó,Aragó,Arago,ES,CET,39.4724072,-0.3575395
4365035714,Villena Alta Velocidad,Villena Alta Velocidad,Villena Alta Velocidad,ES,CET,38.5843148,-0.8738866
4396236530,Araia,Araia,Araia,ES,CET,42.869233,-2.3067403
4408112018,El Perchel,El Perchel,El Perchel,ES,CET,36.7127953,-4.4324264
4408155456,Barbarela,Barbarela,Barbarela,ES,CET,36.7116862,-4.4461114
4408159190,Carranque,Carranque,Carranque,ES,CET,36.7186174,-4.449102
4409535923,Princesa - Huelin,Princesa - Huelin,Princesa - Huelin,ES,CET,36.7040678,-4.4403095
4409558424,El Torcal,El Torcal,El Torcal,ES,CET,36.6995262,-4.4460882
4447955596,Paral·lel,Paral·lel,Paral*lel,ES,CET,41.374407,2.1694295
4448930346,Salamanca,Salamanca,Salamanca,ES,CET,40.971382,-5.6486277
4455669566,Sa Pobla,Sa Pobla,Sa Pobla,ES,CET,39.7644684,3.0292591
4487185564,Dénia,Dénia,Denia,ES,CET,38.8394015,0.1127095
4547815449,Adarzo,Adarzo,Adarzo,ES,CET,43.4534552,-3.8558009
4586092220,Oviedo / Uviéu,Oviedo / Uviéu,Oviedo / Uvieu,ES,CET,43.3663632,-5.8548667
4586092221,Mieres del Camín,Mieres del Camín,Mieres del Camin,ES,CET,43.2500408,-5.7823864
4586092222,Pola de Lena,Pola de Lena,Pola de Lena,ES,CET,43.1586493,-5.8311261
4586092223,La Robla,La Robla,La Robla,ES,CET,42.8039902,-5.6264788
4586116154,Altsasu,Altsasu,Altsasu,ES,CET,42.8954056,-2.1813079
4586239561,Zaragoza-Portillo,Zaragoza-Portillo,Zaragoza-Portillo,ES,CET,41.6527421,-0.8959046
4777196655,Cieza,Cieza,Cieza,ES,CET,38.2466922,-1.4216721
4813092198,Zaragoza-Delicias,Zaragoza-Delicias,Zaragoza-Delicias,ES,CET,41.6585732,-0.9113881
4853400117,Las Torres de Cotillas,Las Torres de Cotillas,Las Torres de Cotillas,ES,CET,38.0314174,-1.2376195
4853402444,Archena-Fortuna,Archena-Fortuna,Archena-Fortuna,ES,CET,38.1313835,-1.2358788
4864432351,Medinaceli,Medinaceli,Medinaceli,ES,CET,41.1652174,-2.4211731
4912161023,Parque Oeste,Parque Oeste,Parque Oeste,ES,CET,40.3458164,-3.849049
4955025224,Mompía-Mortera,Mompía-Mortera,Mompia-Mortera,ES,CET,43.4352223,-3.9181991
4969016461,Boo de Piélagos,Boo de Piélagos,Boo de Pielagos,ES,CET,43.4316864,-3.9463196
4998670036,Nuevos Ministerios,Nuevos Ministerios,Nuevos Ministerios,ES,CET,40.4458416,-3.6916991
4999319356,Recoletos,Recoletos,Recoletos,ES,CET,40.4224959,-3.6917042
5031902270,Sondika,Sondika,Sondika,ES,CET,43.2983077,-2.9282322
5034308998,Durango,Durango,Durango,ES,CET,43.1693953,-2.634551
5034309156,Traña,Traña,Trana,ES,CET,43.1652747,-2.6125634
5034335247,Lasarte-Oria,Lasarte-Oria,Lasarte-Oria,ES,CET,43.2709472,-2.0202552
5059976456,Desertu-Barakaldo,Desertu-Barakaldo,Desertu-Barakaldo,ES,CET,43.3005291,-2.9846665
5059982652,Muskiz,Muskiz,Muskiz,ES,CET,43.3212129,-3.1121877
5061716164,Matiko,Matiko,Matiko,ES,CET,43.2690276,-2.9254554
5155885328,Zabalburu,Zabalburu,Zabalburu,ES,CET,43.2564683,-2.9324993
5171434483,Oiartzun,Oiartzun,Oiartzun,ES,CET,43.3086238,-1.8791635
5180084627,Ontinyent,Ontinyent,Ontinyent,ES,CET,38.8094074,-0.6024698
5216013158,Palma,Palma,Palma,ES,CET,39.5768033,2.6538742
5227216905,Cornellà Centre,Cornellà Centre,Cornella Centre,ES,CET,41.3573028,2.0705523
5251163666,Pozo de Santa Bárbara,Pozo de Santa Bárbara,Pozo de Santa Barbara,ES,CET,40.8069743,-0.8448082
5251163667,Entronque,Entronque,Entronque,ES,CET,40.8080027,-0.8436584
5251163668,Mirador de Buenos Aires,Mirador de Buenos Aires,Mirador de Buenos Aires,ES,CET,40.8094818,-0.8424489
5251163669,Manuel Beltrán (antiguo Hospital),Manuel Beltrán (antiguo Hospital),Manuel Beltran (antiguo Hospital),ES,CET,40.8111139,-0.843949
5254650053,El Higuerón,El Higuerón,El Higueron,ES,CET,37.8670309,-4.8504733
5254727527,Guadalmez - Los Pedroches,Guadalmez - Los Pedroches,Guadalmez - Los Pedroches,ES,CET,38.6992951,-4.9294837
5254810527,La Peña,La Peña,La Pena,ES,CET,43.2401241,-2.9241114
5254817178,Ollargan,Ollargan,Ollargan,ES,CET,43.2423731,-2.9164101
5259835085,Bidebieta-Basauri,Bidebieta-Basauri,Bidebieta-Basauri,ES,CET,43.2367855,-2.8896904
5263686385,Son Sardina,Son Sardina,Son Sardina,ES,CET,39.6206563,2.6612228
5263686386,Plaça d'Espanya,Plaça d'Espanya,Placa d'Espanya,ES,CET,39.5764574,2.6543586
5263800703,Lutxana,Lutxana,Lutxana,ES,CET,43.2910071,-2.969818
5263800704,Bidezabal,Bidezabal,Bidezabal,ES,CET,43.3564445,-3.0112729
5264056118,Barcelona-Plaça de Catalunya,Barcelona-Plaça de Catalunya,Barcelona-Placa de Catalunya,ES,CET,41.3875812,2.1692912
5264057221,Girona,Girona,Girona,ES,CET,41.3950237,2.1709596
5264057222,Universitat,Universitat,Universitat,ES,CET,41.3856938,2.1643048
5264057223,Sant Antoni,Sant Antoni,Sant Antoni,ES,CET,41.3797864,2.1632696
5264057227,Arc de Triomf,Arc de Triomf,Arc de Triomf,ES,CET,41.3921143,2.1809092
5264057229,Verdaguer,Verdaguer,Verdaguer,ES,CET,41.4000911,2.1684275
5264057230,Aeroport T1,Aeroport T1,Aeroport T1,ES,CET,41.2882583,2.07104
5264057231,Aeroport T2,Aeroport T2,Aeroport T2,ES,CET,41.3038256,2.0731207
5264057233,Molí Nou | Ciutat Cooperativa,Molí Nou | Ciutat Cooperativa,Moli Nou | Ciutat Cooperativa,ES,CET,41.3575245,2.0352776
5264057235,Diagonal,Diagonal,Diagonal,ES,CET,41.3959557,2.1599634
5264057236,Provença,Provença,Provenca,ES,CET,41.3928741,2.157979
5288693384,Sabiñán,Sabiñán,Sabinan,ES,CET,41.4440601,-1.571152
5289510526,Olabeaga,Olabeaga,Olabeaga,ES,CET,43.2641894,-2.9552744
5294695226,Moyua,Moyua,Moyua,ES,CET,43.2625807,-2.9330356
5294695227,Zazpikaleak / Casco Viejo,Zazpikaleak / Casco Viejo,Zazpikaleak / Casco Viejo,ES,CET,43.2601704,-2.9218236
5294695228,Abando,Abando,Abando,ES,CET,43.261363,-2.9274368
5294695229,Zazpikaleak / Casco Viejo,Zazpikaleak / Casco Viejo,Zazpikaleak / Casco Viejo,ES,CET,43.2596406,-2.920709
5294695230,Santutxu,Santutxu,Santutxu,ES,CET,43.2542965,-2.9132866
5294695231,Basarrate,Basarrate,Basarrate,ES,CET,43.2511513,-2.910744
5294695232,Bolueta,Bolueta,Bolueta,ES,CET,43.2469513,-2.9056437
